,Time,Position_N,Position_E,Position_D,Flight path angle,Heading angle,Total angle of attack,Bank angle,Ground speed,Lateral acceleration (command),Lateral acceleration (response),Bank angle (command),Bank angle (response),Drag force,Thrust force,Gravitational acceleration,Yaw,Pitch,Roll,Elevation,Azimuth,check
0,0.0,-44.84435778410848,-0.9612825649794304,-1899.446294085632,-0.016441373994222443,1.9498932205340727,-0.08939335521543981,0.06909852823294116,248.23666677578947,2.507389057879986,0.0738926349516048,-3.410636973301729,-0.3272668099007834,94398.21180294649,308529.3994678457,9.79130575596113,1.9304475072390017,-0.06670902592557477,-0.45470697917919267,10.529926072161514,-1.9323257672669343,True
1,0.01,-54.98287913507032,0.2758953137098624,-1803.7913825683459,-0.055755495160507096,2.0308731419299084,0.33344021676507785,-0.18702397843657434,250.7912078040133,2.608571232323122,-0.04882151094570688,-3.3223179419903754,-0.5328844469532884,100288.50844046603,287357.1191607885,9.859184302316073,1.9776031144360264,-0.16115899368052367,0.3228272050641962,11.540232717369783,-2.092728171149436,True
2,0.02,176.4457637427892,0.3530399958942337,-1922.9823122149955,0.17531675255333667,2.0009092116833416,-0.22970308063543105,-0.5346216202753222,244.2973132614727,2.538081372935106,-0.0022408071582051704,-2.4720228573204976,0.021075047458261026,91768.87467237747,290034.2992200887,9.861093374986586,1.9974789121501604,0.28857892585986344,0.22254864099065408,11.0979997619643,-2.040099651721285,True
3,0.03,-113.93669836264067,-0.20114163863554924,-1888.547132029399,0.11491433876157588,1.9714678993523012,0.07063620646144744,-0.05541153078263242,246.38428481540024,2.491749287924517,0.051331334917665936,-2.7855159021513978,-0.036763453160534226,99525.8283442844,294197.62269338197,9.956287535442073,2.0244051363362723,-0.24617118565241072,-0.6208392121271592,10.898844653274091,-2.110890398689508,True
4,0.04,147.80532246437025,1.2757508085422027,-1903.0627931520676,0.09494199969133583,2.0709173746603535,0.4068877940581398,-0.300709147632494,240.57366629870185,2.591907712021164,0.012585356270793848,-2.812279833723247,0.07281214341620432,95089.62478201835,269917.20270425756,9.662558890805764,1.9718060121626626,-0.18844513225614745,0.0866748437501712,10.800690890431534,-2.171839095119269,True
5,0.05,53.99038596626532,0.0176857439871847,-1953.141703166587,-0.2716856237426448,1.9407245297271893,0.24044360849497232,-0.1767894458840394,248.83986945283465,2.5301873024198605,0.1303539224755724,-3.0443883652763004,-0.5523402920080198,90744.47927031135,287280.3334643224,9.929595969423147,1.983953793954701,-0.3976155466230248,-0.35380089513364765,11.551164421808505,-2.196667657515137,True
6,0.06,47.852673960879855,-0.8678457190321408,-1887.2095350258528,-0.06001673996619983,1.9999336345149208,0.15645011658908797,-0.9056374774691136,251.1501878224512,2.5164490587144215,0.06013442418480795,-3.007585369114555,-0.4982588712709895,96328.80717822988,273924.7596851891,9.673944283059686,1.9335990994765078,-0.23100906816222014,-0.48473566955548136,10.19252064100509,-1.8552943407572613,True
7,0.07,89.52937496174788,1.4821297582609927,-1882.6482793903158,-0.04167454562060083,1.9297371950349922,0.5649421072310902,-0.6458353112858415,252.7294924059583,2.522917808392512,0.08047823516842333,-2.8150850083204286,-0.5779306186702171,96863.82996926486,280629.9985906041,9.773401528869856,2.0631908184501655,0.6458719232236447,-0.09108305533611016,11.480011858586584,-2.029108121346406,True
8,0.08,-5.708231210117429,0.9724729656527886,-1943.7733997425441,-0.39841996418988457,2.01455622297075,0.1947255121297884,-0.3351406204981639,250.60655501171018,2.5285275522225468,0.07729304062334016,-2.790006419201919,-0.6627328542751606,93400.36994816088,277605.0106739837,9.569242576257011,2.019534707730339,0.5947213082996362,-1.0480606317568821,10.960081614582785,-2.1971374775691923,True
9,0.09,10.996713684436441,0.059852486651523984,-1884.623439874333,-0.1983241640620339,2.053187570572576,0.31990081170134577,-0.47075030658246503,253.23649999259393,2.5299061699398537,0.17954588743199668,-2.5707926780524755,-0.9087977633721215,95360.49668756976,280482.66035495204,9.85347222031609,2.038798496204469,0.8360084247751187,-0.2464938052438791,12.336718673989647,-1.9574607892959501,True
10,0.1,1.017758821745847,1.28978346345807,-1961.0348296057316,-0.0588120423129882,1.981110409367716,0.7613506110415276,-1.1279234437380565,256.1680499449273,2.623089553087618,0.2519779197700448,-2.6778573717955916,-0.931395881129581,96280.90668378343,274316.44565081026,10.03391600425831,1.9610456758863206,0.7650165967205768,-0.9401593936675148,12.32828029233493,-2.143489564599013,True
11,0.11,-51.3366838157141,-0.30887167627725587,-1895.395051462929,-0.310405757234846,2.0235352862684475,1.2393770929116115,-0.9527280232558176,255.6017868604362,2.5813922633711424,0.12632258483775682,-2.6450567965225003,-0.7903296916968423,96370.42989922858,277721.42055824964,9.983646681189345,2.0491450495071297,1.6070717277376525,-0.8842962132752497,11.865707708130463,-2.3273338233377094,True
12,0.12,87.69493587600765,1.7454139601841863,-1912.6654113153222,-0.5624723835379466,2.0309031573899072,1.2207195381127414,-0.8822078127692201,257.7174296190623,2.5406797537137535,0.2950275117498196,-2.7327530719346176,-0.7599271007080178,97927.99166844646,270639.7303355875,9.939206427376236,1.9263584932064677,0.813435045013685,-0.9499301982861874,11.80680628874489,-2.374768263032613,True
13,0.13,106.27940824891922,0.5376419336537213,-1902.1648179458505,-0.41058716358760966,2.0066704547820864,1.9303834798501889,-1.3119966439976098,253.78955011998187,2.516695687825027,0.28031931675547933,-2.9014982677546746,-0.7561230903372885,95726.50372812233,267172.30612142367,9.553338196369747,2.009834345003764,1.5980449914020567,-0.4081603562336331,13.212121750994166,-2.0721961582896955,True
14,0.14,-30.5002045319049,-1.0916246796693874,-1898.443717060212,-0.29565111224292484,1.965544977299021,1.8787316512266665,-1.4867498388373204,257.0098945751263,2.5087139213441327,0.356826373237636,-2.346957878599725,-1.3902792640080714,99969.85730372301,264680.45359177154,9.987445468048794,1.9784139316254254,1.5801820814315453,-1.4941346182931985,11.799422254862908,-2.0020589113109777,True
15,0.15,50.116253743877614,-0.23094737746904426,-1900.5567503064374,-0.24832091924695232,1.923346479007774,2.1163610764193344,-1.0326852149614714,258.95231081305394,2.617031032220204,0.47186379112812615,-2.8847779749013505,-1.7995385519347655,92766.42986114506,271446.17533416866,9.989141673489621,1.9249102760846681,2.0755926217670018,-1.1881382720939444,11.651083636011261,-2.2998476167605424,True
16,0.16,62.296585825180664,2.2554783867712054,-1955.2052931166882,-0.2269360844889547,2.046646799870757,1.8122410039086114,-1.8334005050784876,254.04784237898915,2.5106613945790914,0.4076349369382766,-2.8245775244169136,-1.8213323341684853,100697.49724667495,270969.39775793283,9.740289703916524,1.9522878560048218,2.5651017324293024,-1.7831801464668737,13.087170108208424,-2.40728687420821,True
17,0.17,26.946800416025056,1.5892658475127834,-1879.6972933346535,-0.36528669889873555,2.0100881511416033,1.8871381639575597,-2.0905829043828357,265.83223047492584,2.57908392374574,0.34790760406185656,-2.7345136997347175,-1.4643663492057277,94345.89619768171,262408.611008481,10.01426228659287,1.8802201348249767,2.1112555687876347,-2.0043065615055893,12.512013970845578,-2.26324761217678,True
18,0.18,91.69832146728784,1.276610185289834,-1826.0418918890068,-0.3913522045093314,1.9669517057209365,2.781571367643153,-2.2372231971087047,247.65165415046292,2.5536306321824256,0.5036610793075914,-3.0932952264188804,-1.3655332244764395,98952.01513649935,261852.80068143533,9.840684380477322,1.8639890174748166,2.807098955234892,-1.481852771152291,12.944374441502003,-2.3304432130467405,True
19,0.19,0.0,0.0,0.0,0.0,0.0,0.0,0.0,0.0,0.0,0.0,0.0,0.0,0.0,0.0,0.0,0.0,0.0,0.0,0.0,0.0,False
20,0.2,18.487795592151485,3.0910067489837987,-1990.9828746913697,-0.36649274126117265,1.9992900872805512,2.6609791363938022,-2.0758767095265074,243.0304706641815,2.5586236814814307,0.6452238010306817,-3.257373115971175,-2.0655790534509593,96266.6154534498,256065.06358061306,9.484667828697008,1.9715507257523932,2.8435019269269923,-2.044570421146559,13.182799348711027,-2.5071369594297237,True
21,0.21,-138.73837502690813,1.5908149735440236,-1873.6634984290852,-0.30987233231748923,1.9937475623038716,2.8700909344667633,-2.2425518356184315,255.88495674336386,2.561581397531494,0.5520609535747513,-2.345575441621331,-2.2354082944011435,96451.90994983398,271136.9205902865,10.234526059915876,1.9278473585791502,2.6613483376261513,-2.117636505657975,14.616067044479307,-2.4374089989778183,True
22,0.22,-50.21401933945115,2.6831013208889054,-1943.8035028739082,-0.537660990570388,2.034662745958351,3.67176891875077,-2.175208184920339,252.40590567132315,2.5760588974967296,0.7093598818164927,-2.569532954093168,-2.6779295192426087,96920.44645915365,253206.1055051039,9.426801831915027,1.8788710315200112,2.9861950732331213,-1.8599400118933112,14.316077377627202,-2.4525129584995358,True
23,0.23,-47.24346157846993,0.5714167069861427,-1958.931505861515,-0.4944665372957104,2.0174701463124944,3.645438944406129,-2.4945344294954084,256.8252779769869,2.4956563478857245,0.7092346593143424,-2.267058780077908,-1.7178383183758619,98127.30477289726,254398.80851934786,10.054523902503949,1.867506855693234,2.97214945116642,-1.9986526402690319,13.791208537445613,-2.527885956424859,True
24,0.24,39.4910518492733,2.4551830363334064,-1978.756686896344,-0.2404716070354282,1.9721539460440178,4.269802971775749,-1.9140808939500307,251.44404988401644,2.5241200555273737,0.7636198905087981,-2.5312484271687494,-2.2267581099173137,99429.03915991934,251724.04302433005,9.762358447614716,1.8296397044506656,3.6516727672279377,-2.8302674228169824,15.39362665668936,-2.434745446701061,True
25,0.25,179.8757269297941,0.7025273886100256,-1916.1378179064152,-0.3352249058476091,1.9538934959023333,4.05767104319225,-2.548181928208533,251.83435987776278,2.578044403825527,0.819783090429331,-2.5491854668966365,-1.9574779908748388,102000.91166115014,250487.94665989926,10.020254402046268,1.8224907740026073,4.2283651112995075,-2.4288010766278547,14.39263731510327,-2.372180223691422,True
26,0.26,113.07474610220426,2.6671416379023904,-1875.5906637306443,-0.18445693516395056,1.9607553305978376,4.568325244701073,-2.1103680505488907,251.918407424185,2.5267554124552496,0.7936816467250477,-2.687099924601946,-2.655483624073556,98899.38683981194,244164.80916865007,9.972309123592822,1.854021534369433,4.680352494286527,-2.4782227331297353,14.017190701641262,-2.5723780338826785,True
27,0.27,-94.67127732257603,3.0577339626997913,-1837.6030302016263,-0.4062399576834883,1.9958274772695381,5.14226719346871,-3.249936999863871,248.6771834605227,2.5854998196525614,0.8270594388752082,-2.866106381808096,-2.4761177887331582,96983.80788922374,245207.96221329016,9.482218769173429,1.7730441921354356,4.78377049139277,-3.2659730982328092,15.337716820214547,-2.5690180624261174,True
28,0.28,170.617119751359,3.295613358666636,-1893.4405656682397,-0.3316401195384359,2.0158887357901953,5.111148869258986,-2.868990052848101,254.45058169275347,2.601928022199601,0.9649944602584802,-2.6571274379572536,-2.527016050898506,99000.72183961452,244232.7547602312,9.88099380318835,1.7059974673039517,5.092380082216677,-2.843183952597262,14.927949086649498,-2.612858482149783,True
29,0.29,-65.24714503911102,1.6254173987017393,-1880.5733295083926,-0.3603264181269159,1.991671608143147,5.18847004033637,-2.6316184671525322,252.20366857079793,2.554779967535412,0.9908947264924128,-2.97544398910191,-2.220317016399916,98595.70741074151,260418.0900015793,9.971617602886845,1.727230402419445,4.761484604994122,-2.2961387407038627,14.905385116713283,-2.522647140481108,True
30,0.3,100.59177326011469,2.218199434726333,-1836.597501918924,-0.24616925257408184,2.0057244796069154,5.741147606153808,-2.755493424615552,256.53937255875644,2.5378197895754875,1.0226331611142196,-2.4575555896287797,-2.258521018890523,97937.69674901484,243780.6517673977,9.826968007111478,1.7676403630358282,5.840658667627475,-2.9404146379946083,16.150645932923396,-2.4428918541293054,True
31,0.31,-18.569362875321715,1.7780750032863102,-1935.3930340242741,-0.34478208217568657,1.9985803396743045,6.137954013703588,-2.9979657061181433,252.46722533923565,2.5121445045677273,1.0478552795984057,-2.1392738476627384,-3.2799939807514376,98731.57025174238,239926.52302114406,9.86165314218281,1.6824683908861084,5.404267807961357,-2.798786603834245,16.196971793057795,-2.498481685187437,True
32,0.32,-61.096490864405254,1.8665986268102532,-1923.714097992209,-0.2936269790138908,2.054140810477222,6.793660199562209,-3.0596729127118474,257.22150211366744,2.5690234553010245,1.2077910127380347,-2.294653336899651,-3.044230849016362,100231.52234817485,235919.8160403784,9.977102015016502,1.7013148243988618,5.810678164348326,-2.5371664008708725,16.26032761275639,-2.4702741393442307,True
33,0.33,90.51572804711206,4.047533244869097,-1964.4514840644226,-0.16738803233362007,2.0598043022372683,6.3522478266111255,-2.7903205469254084,251.54321758613978,2.592174068110075,1.1446928023423388,-2.6771596733584033,-3.4510984571823853,100478.92380387404,247601.55626556114,9.643348222707678,1.6674062185126164,5.541375476586397,-3.1021766885249225,16.883747884536053,-2.824963621239216,True
34,0.34,158.5086914633103,3.8779673271792756,-1923.0724879772788,-0.18579726937640176,2.012685627591534,7.041006721249452,-2.7833509375297387,258.25562002893207,2.563009546916856,1.2373903938561364,-2.447946850606212,-2.7451104150181482,99113.1683114352,228768.54214836477,9.923033065543374,1.6929111068007967,6.298949236762597,-2.964165847127441,17.21563975241631,-2.718145985831191,True
35,0.35,0.0,0.0,0.0,0.0,0.0,0.0,0.0,0.0,0.0,0.0,0.0,0.0,0.0,0.0,0.0,0.0,0.0,0.0,0.0,0.0,False
36,0.36,307.5290519557999,4.073902726932077,-1925.343308448656,-0.16375583299058755,1.9747840719685736,6.836909703354822,-3.034345899928936,253.59954630242356,2.5684516719127393,1.2254286450750054,-2.9329766275761067,-3.4060179036261053,100295.5482401705,240811.9636325049,9.857804121167748,1.6397290302988876,6.970972031367893,-3.13565335035016,17.87999927381265,-2.772110011033865,True
37,0.37,95.49301824209797,3.033407431658216,-1866.066936458474,-0.2875512972158014,2.008058508088145,7.0391193230862426,-2.350917432420581,255.36142864635679,2.592930155733945,1.3781613528807541,-3.0272096191603994,-2.9183698666883133,97109.40833965557,240766.3580592852,9.554594114311339,1.6268717812635447,6.174378858930592,-2.9488147759800545,17.55515287364639,-2.7402440257795613,True
38,0.38,0.0,0.0,0.0,0.0,0.0,0.0,0.0,0.0,0.0,0.0,0.0,0.0,0.0,0.0,0.0,0.0,0.0,0.0,0.0,0.0,False
39,0.39,235.17203807068125,2.1025420328436093,-1868.4670553894068,-0.29944309544774567,1.956433275744631,7.374654283923774,-2.262413768013184,259.4399172365781,2.5349832567134922,1.4585204269221594,-3.6127082485333277,-3.714843762102462,100883.8286673672,230977.54803705975,9.90366139081468,1.6272818009820276,7.627811530655407,-2.550552576450325,17.724272642072894,-2.538502155822433,True
40,0.4,122.4610574027453,4.241372314946082,-1857.6579283403983,-0.15516411052348728,2.0372566478216423,7.700334925333362,-2.522968338905774,254.07129812104273,2.511504343855318,1.4235228113024418,-2.5334392113799185,-2.8182481257104897,101190.97001623621,227507.1146285793,9.833822729635669,1.5552402163966215,7.750410383783891,-3.0644620499918855,17.887117904707857,-2.5357883675694044,True
41,0.41,116.7241354141221,5.045069173962178,-1869.0807497275225,-0.2374000586232625,1.901478237676032,8.4306702110564,-2.949946401206854,248.0917409380769,2.5522613771586475,1.4005032573228777,-2.7251026729051966,-2.682348234112837,98954.19208954892,225849.28568240348,9.775271544151725,1.5621847347281947,7.803330433267201,-2.55585093942215,20.610259973495307,-2.7571074288232706,True
42,0.42,-8.454530863746001,3.547019190689493,-1875.2263984974518,-0.250388345044159,2.0138114146329342,8.369037347031318,-2.8691684510510873,254.6813132814938,2.6739842646203,1.5375354495093803,-2.6861409948925172,-2.933045008077163,96281.46338492612,231130.51257732624,9.624211620410446,1.5404141027595901,7.951908058668783,-3.486557584189743,19.014621909875267,-2.467128661861941,True
43,0.43,43.15069763518673,4.058446475650553,-1865.992801459479,-0.24175521335792716,1.9920291517677335,9.057121795507733,-3.290944533595687,256.53320573388623,2.5391667036421226,1.60419501493378,-2.650202288916623,-2.8820400227906076,97754.74568905242,233422.8727311534,9.628322085110197,1.5745114617595257,8.187593801522553,-2.5539874020586835,20.3111298874589,-2.8294100511269025,True
44,0.44,241.3555183730826,4.143112632114554,-1889.8463820909592,0.02190458059870487,1.9673794875258164,8.983883493923718,-2.6816811053086016,252.21367938423134,2.4640609875213566,1.6592633220978692,-2.7799382551331457,-2.675431186590357,101209.92632595278,238468.35572661637,10.08809200744884,1.5425112555786087,9.062743600508247,-2.8287181748811396,20.26913231903529,-2.6696642466157767,True
45,0.45,97.89020727106376,3.8580561845429897,-1852.2139205734436,-0.017052267198868765,1.9796306708807123,8.933893787874318,-2.8600398022065536,257.19515660077036,2.5475800537963367,1.688708796806281,-2.7514687296212585,-2.465048544317462,98902.7621076975,225607.49574011547,10.078146930814922,1.5775157514667475,9.448377363514204,-2.520141046272369,20.171103964286356,-2.5495865597375063,True
46,0.46,16.533394145356908,4.112765405281896,-1938.648521107903,-0.10385991690891355,2.0373450156036106,9.156669367532398,-2.5841799407418153,263.1667477183609,2.4865622247193566,1.7777947312940274,-3.1040275670955464,-3.346390533827843,101949.21995919826,220190.06717279702,9.747420460017741,1.4958950685791021,8.610192427167709,-3.0072442389683087,21.17200329545876,-2.865304168734388,True
47,0.47,0.0,0.0,0.0,0.0,0.0,0.0,0.0,0.0,0.0,0.0,0.0,0.0,0.0,0.0,0.0,0.0,0.0,0.0,0.0,0.0,False
48,0.48,125.9234994236527,3.557970024382953,-1967.581806718958,0.13016457867344944,2.005070717814678,9.935369892196855,-2.8399045537239225,257.81859843651193,2.5510201043189347,1.7539297130430405,-2.996419198753273,-2.884756898518249,101082.67030954684,216941.47869040084,9.824802947459398,1.482967382377076,9.714279333965996,-2.4864710365342013,21.127994225783763,-2.6128538617288357,True
49,0.49,92.16453455428082,3.5403954757681535,-1928.5883519826643,-0.16763784791435335,1.8871778056011004,10.564370477273611,-2.849471801099392,254.8767578885826,2.54628803795855,1.7904520969621194,-2.7738009825473453,-2.6418906871161294,98231.91479703701,222639.3399506067,9.875389518997508,1.438799561639123,10.61528796339816,-2.257738321678616,20.59794407922424,-2.764517013997823,True
50,0.5,72.30244618308603,4.410758331557528,-1880.9694524670865,-0.016770927073168497,1.971867201614688,9.537211086251078,-3.064205677921482,254.3024467277305,2.535362345245027,1.8405800242354995,-2.920761470059031,-3.019036544757915,97294.88094195427,229388.37478383232,10.003483218668817,1.3997527804019332,10.375662279166622,-2.840021948942713,21.17771718435738,-2.5613610161364178,True
51,0.51,77.65048742782386,5.087770816465975,-1927.0365768238914,0.05133832267663859,2.002956605185031,10.383481760502441,-3.0752290284964037,259.0672555075673,2.5251261608144944,1.9657568134424686,-2.727683332697133,-2.4182375996681897,97865.09415153656,218726.9275514761,9.487150562487397,1.4663282304881575,9.749941931993554,-2.463547289350191,21.257432459184923,-2.5822174898937815,True
52,0.52,159.4833412419955,6.3280412637008885,-1894.078574982696,-0.06547903698938555,1.9154646820709955,10.462836146009813,-3.2572092854411574,257.69815196059,2.540868442115675,1.8642789309891978,-2.8046594265347338,-2.4108768535064087,95806.97599476027,220405.82029258748,9.323776635949633,1.4624721323797145,10.560820976165557,-2.530236186865033,20.263371040628556,-2.489887683585238,True
53,0.53,212.56595258054142,5.201990587951307,-1847.9975147041828,0.0944795300328963,1.9510284766877957,10.953034352985869,-2.3692552778840543,249.89131466517716,2.647756786500254,1.9773000331878203,-3.260198627432709,-2.474368427173427,106289.46488926293,214956.13083377952,10.021631415842535,1.3956678828076223,10.437756561411057,-3.022029755366035,20.81818619214713,-2.708321963879293,True
54,0.54,317.5481668194549,4.869039691381,-1964.2532540649497,0.06558581339711404,1.9559673826380994,10.56928491026074,-2.553409073550502,250.6884692798702,2.5474011091709983,1.8968149014121045,-2.7050103771018144,-2.7171114261243594,105219.58290971509,210270.45059262475,9.579893833229502,1.3759446732423493,10.838725283220596,-3.0484147874437775,22.27557068441271,-2.548211011754523,True
55,0.55,0.0,0.0,0.0,0.0,0.0,0.0,0.0,0.0,0.0,0.0,0.0,0.0,0.0,0.0,0.0,0.0,0.0,0.0,0.0,0.0,False
56,0.56,318.08460418416814,4.849917438016028,-1982.9816282782979,0.19662817048804387,1.9576136647499205,11.500648854876506,-2.6140298226439627,266.0252702098686,2.5544086239348296,1.9487704857514756,-2.840851038168023,-2.6904465581171233,99665.87221855366,217006.8864297762,9.736077274570409,1.3525748781771398,11.6538257376134,-2.884685948126925,22.10726749188477,-2.892540670435573,True
57,0.57,62.918439796704675,4.7071882304636326,-1930.515735921271,0.03776482796459675,1.9486653337493922,10.520991220197304,-3.0744275047308087,260.403235167569,2.5807670648331267,2.0168469549766184,-2.597860215710555,-2.507842169946524,100667.23976635882,214673.38106966118,10.10296023241924,1.3625681521926178,11.210549365785914,-2.92315303262753,22.286625665641786,-2.4116012869146726,True
58,0.58,-78.01963999575275,6.586315016498682,-1835.2865107440964,0.062128805606182974,1.9348836163638772,11.43676001152563,-2.4080933194419387,259.2753413108364,2.554273501102725,2.0583268516391953,-3.347941001342882,-2.529089474181055,98166.8508751337,219105.36960006153,9.794785848677764,1.3817140912758452,11.572286041348264,-3.234501566905962,22.808565593841294,-2.7043325832340943,True
59,0.59,158.67103441585058,5.329951143749573,-1936.4549134671956,0.21147740404026208,1.8945408549231348,11.653961965352746,-3.0404405025244006,257.1190857971905,2.520455700173531,2.072945118910807,-2.348421129342197,-2.7615320958826115,97535.84321258764,205057.9777903133,9.713226357937403,1.3433886915582958,12.052026278585325,-2.8690729726577016,22.648017907419554,-2.5872022297196113,True
60,0.6,131.7015256686525,5.728783667432145,-1863.8337311194452,0.185232035009903,1.921572065738204,11.603944208703997,-3.1247744269735467,251.1782027950843,2.5692909694142605,2.234798989446493,-2.450039798121856,-2.4126240012046014,98529.0674341602,204826.3281087391,9.494754738538742,1.346742829377807,11.417279552645475,-2.6431570614956055,22.814273531073656,-2.7641566096194192,True
61,0.61,204.15941549939012,6.477800730108259,-1901.5298340908182,0.3012748489469757,1.8743094913164593,12.056207321629314,-2.4536170899185077,259.2010841820138,2.5788782980297937,2.2124218699984946,-2.7775901134222374,-2.570259116524107,98720.62892719335,204215.57297569772,9.7553379340704,1.319623094047291,11.784489983277973,-3.372243793584921,24.229163091644747,-2.725260471422819,True
62,0.62,94.95506696417907,4.777936790017076,-1947.5550919524642,0.4168122767380913,1.9123931661320026,11.404606128405769,-2.6233244178734743,256.4817570406645,2.6196557897251576,2.235361729450492,-3.7580330667023927,-2.7171886703738033,96265.34178178907,204209.3892938464,10.049743147480529,1.3312596549956697,12.259924077817509,-2.9219134375929476,22.958691872620275,-2.5723968797410115,True
63,0.63,-42.01683733295155,5.610753605013471,-1855.762294526109,0.4515849094169865,1.914537178347983,12.427117903696628,-2.942876121280807,255.81034167700733,2.4943466426234147,2.2808168733377694,-2.7666152861299222,-2.819235857058791,97969.99092556728,206819.05103164783,9.536369561592304,1.3325210216354457,12.525029129425544,-2.8610554787359783,24.34340445573004,-2.8300865990689257,True
64,0.64,212.90762145514415,4.781915808106113,-1969.4749666005662,0.1793652331773995,1.881827980279505,12.626805575081434,-2.2155277882376794,253.4895831556165,2.467736268061625,2.1895486364224244,-2.3300934632472825,-3.053214163847527,101736.54179464876,202062.64474879677,9.69091668774739,1.3177911544147416,12.188599929716688,-2.9222557070926887,23.71950841649256,-2.801956674042206,True
65,0.65,301.0976875296652,6.00233169914905,-1865.6965944872975,0.41575414860328813,1.9434495316403662,12.089788611684604,-3.155012248856256,266.5567524626047,2.550207081299385,2.1934872431061163,-3.300331931789145,-2.51367237723184,98592.70959610362,201977.90028607196,10.024730629623106,1.3602777421136398,12.582062563046334,-3.038722117857925,24.428054215629217,-2.8063904594941507,True
66,0.66,122.27528762525279,5.975533147823242,-1908.0687729439999,0.4306860669667437,1.9523380617994457,12.247173618703188,-2.533116573075369,247.82264179683656,2.5828934412620015,2.3695960856993605,-2.955480600696239,-2.9295966667061015,100162.9223980441,204263.87892170186,9.669459023046365,1.2464305243627016,13.344809010667772,-3.0731157329879553,23.197024197746487,-2.792752487917803,True
67,0.67,131.63586464265296,5.522375019953914,-1925.2741520102627,0.4691769016060519,1.8900330084764216,12.886565965426927,-2.937482354177603,256.06880732553645,2.5601010855045954,2.367301884342715,-2.9149543725983995,-2.5558499414968154,100846.73597888098,200387.2504290448,9.769736019974703,1.2932347983375183,13.1522939540499,-3.0967739267064665,24.389522702790362,-2.6962223094399436,True
68,0.68,219.96647372462948,5.475849626845505,-1843.9182007741615,0.406817373186814,1.868807654221086,12.833449895691368,-3.075849545403606,253.99855906308431,2.479854764404904,2.326347075291574,-2.959209524240213,-2.602232552080196,102860.61393606405,202902.09758659822,9.572831892216646,1.306476901728399,13.857454558820297,-3.0506781162522247,24.213744551222664,-2.8824328445306566,True
69,0.69,262.95438062767477,6.363553094017676,-1840.4685460364183,0.5229747588462608,1.8809577303315117,12.82753540328931,-2.3038257233729875,251.24690411606431,2.5875993032754963,2.4229463232954935,-2.2310614057076,-2.360675100157676,95384.35078104834,197244.6319801673,9.934778929177261,1.2341957909799486,13.592331936444113,-2.6762662508984576,24.32635058066369,-2.814276427210684,True
70,0.7,66.60955536733353,4.940252482972953,-1906.514860250929,0.6167469029178159,1.9171593251627512,12.88389196466913,-3.0617103899456173,248.56259468101638,2.469594720712793,2.4434641719111876,-3.0637038219680193,-2.230360536190976,101788.57447062734,198054.64011917473,10.053177722618182,1.2944703758500213,13.639793452191988,-3.1349652659751865,23.239275322948497,-2.5853346280833014,True
71,0.71,143.38484115445885,7.740371015789947,-1979.3344171523968,0.7677836920349511,1.9022237497030914,13.240397830356759,-3.2098796018315396,260.1223542097025,2.5308946964925987,2.3311949146635005,-2.772653725521501,-2.7981935564849643,101499.08959011681,204686.85840158767,9.827867626923334,1.2269144929098537,13.618539226951603,-3.22363774248858,24.757728281985916,-2.9717101324080826,True
72,0.72,154.62123000420263,5.75717191344874,-1845.4528058489234,0.4657486792149516,1.8401945601648637,12.932730789399542,-3.157431829415736,259.1424138292056,2.47918746487063,2.3959793621547423,-2.7776709477580113,-2.3881108233467647,99044.42161459125,196037.01310042126,10.208565779735027,1.2794543355204488,13.834092223851139,-3.5155466607781953,24.09498141924091,-2.6276392915290128,True
73,0.73,148.4253181958872,7.057419984295342,-1908.938120708441,0.8766461792716063,1.8864669248478951,12.986495415428735,-2.722778288157509,258.139500271146,2.5723012124389295,2.3734015394197474,-3.217760309019126,-3.2481995478646084,95524.90156610192,203202.8950213038,9.846291787448996,1.218745751271714,13.674004298240186,-2.9664588065054223,24.22091125027288,-2.734652936218263,True
74,0.74,151.4911241218752,6.731749217606052,-1931.0145616333516,0.7028119557458749,1.89394838466296,13.446822153039967,-2.9275546688597105,260.15318166910043,2.5855811815801575,2.422412891949339,-2.7479884920582327,-2.803799409613732,97190.96182994675,187489.05091946642,10.000984448408397,1.160708823667831,13.704869465198776,-3.1783956563388784,25.233429166673975,-2.812637501945247,True
75,0.75,358.59948470094434,5.694122642097394,-1870.8464124405257,0.8220422962668825,1.8847491865938675,13.013438756217752,-3.080015725311624,252.43819868199634,2.5357067927221006,2.3742575701236284,-2.541393883316247,-2.7991415782931908,101085.38693153732,196057.0280200477,9.85830696950851,1.2462114398343007,13.9699777291468,-3.0479735138428508,24.668035312551435,-2.808048282396991,True
76,0.76,177.0623017509512,6.841270606419214,-1914.278106229511,0.8229441349143348,1.8910890136474752,13.26772332954249,-3.1966449239133365,239.19973994806637,2.629435477860858,2.4954517297837127,-2.8108401240052294,-2.6507375957728216,103677.58797226576,189649.92364300697,9.7845119726333,1.217165283954904,14.006641586683866,-3.2436304437079313,26.00784941836658,-2.7764295265000434,True
77,0.77,173.5395786202257,6.5205606665173255,-1931.1246429928074,0.8601872055655646,1.7944428289430396,13.411408420590845,-2.5023734054517583,249.58458063205205,2.534686417709973,2.377937969148329,-2.6495427951121004,-2.902806354967649,99224.01475682919,182395.01104831562,9.677384963004338,1.2231960307448755,14.24837151230331,-3.390538265809474,25.4353532427235,-2.7267881658148676,True
78,0.78,146.28424365544168,6.533057212653829,-1864.6324212716495,0.7387140322150879,1.8512192565311998,13.237511183202484,-2.5529312869607956,267.61925530851533,2.4664655102922843,2.5101784722507086,-3.069316782457965,-2.8639163377736363,100556.51888352915,187548.25052216314,9.639408998297652,1.166652599355572,14.653692119848555,-2.7827826463629526,24.667123024906513,-2.5462310841064806,True
79,0.79,0.0,0.0,0.0,0.0,0.0,0.0,0.0,0.0,0.0,0.0,0.0,0.0,0.0,0.0,0.0,0.0,0.0,0.0,0.0,0.0,False
80,0.8,132.5255388181505,7.7983807544283685,-1918.6662463965085,0.9106470325423273,1.8848060923854384,13.68260951488663,-3.301122537495929,254.69505610835245,2.551089033960677,2.489914468406311,-3.1261418686181583,-2.8945710020534983,99806.74003519463,195599.80024427178,10.089903103923126,1.1593729328850078,14.77237294574118,-2.8696008903649908,25.59135084534014,-2.599541724601548,True
81,0.81,157.95171860474778,5.802706605775816,-1882.843358883711,1.0840631100222775,1.874164422649447,13.283047680677097,-2.395085235342585,256.7631191652502,2.52394001073433,2.431809920984298,-3.113338973511431,-2.23531615107044,101224.22230265102,184550.95128046893,9.68001642222958,1.179115999322956,15.141507532348934,-2.8648808476169942,25.01545789119428,-2.707272981877866,True
82,0.82,176.4116117853407,7.485901063911995,-1942.5423988595264,1.0107692948359346,1.8259493619729483,13.522473304124015,-2.453304596592965,259.52333257499123,2.597350046373283,2.5121759523930205,-2.7689075518262487,-2.801996639588653,101421.98892255366,183325.12377078287,9.655725511349173,1.0634889639395797,15.165532849998602,-2.1980929900282344,25.927852844103615,-2.7840925120739666,True
83,0.83,407.10572144838665,6.682860207178371,-1933.3326363010979,1.0011668769688633,1.8676750026602116,13.764976819654175,-3.3804957633333257,261.0748632796029,2.544390696813049,2.643251899773606,-2.8168685750971107,-3.032902299236616,99684.47508900953,188696.8486582626,9.789910725529868,1.1081456269562326,14.207100824283732,-2.774588352553232,25.603207572383532,-2.7087740936826115,True
84,0.84,323.13173707454666,8.674039937962378,-1908.354028597859,1.0724655078292349,1.8929815111148702,13.905948331805611,-3.680314209284942,253.97139670138657,2.576983105344399,2.4934362131800523,-2.3776771624330744,-2.677763509004124,100978.29904720065,180669.71130620898,9.863444760104858,1.154349732853698,14.942763329291315,-2.9117959337136474,26.70652905275023,-2.5863705937343204,True
85,0.85,294.1687933525574,7.067784242527776,-1812.222421364957,0.8758618691881432,1.8615569311633675,13.988792167900954,-2.8497150843389636,259.40543923541236,2.572287991368907,2.587798254867501,-2.883582729443234,-2.7013667510664034,98852.81713668467,187362.27249772998,9.959089501693535,1.0295436490013579,15.224393823416982,-2.9256017671152637,26.117883345571776,-2.7017674226406228,True
86,0.86,0.0,0.0,0.0,0.0,0.0,0.0,0.0,0.0,0.0,0.0,0.0,0.0,0.0,0.0,0.0,0.0,0.0,0.0,0.0,0.0,False
87,0.87,190.87167292357273,6.890139456669724,-1908.2840023628269,1.3953601245717526,1.8608842648611665,13.816070234044961,-2.3766958926117767,251.13484103605524,2.540486151907927,2.6583446812745355,-3.187383392787024,-3.2473902828992713,100082.62045645811,183012.16883158076,9.741807597482318,1.158952078456781,15.170541402411327,-3.085372214790869,26.250473485820326,-3.035593262848926,True
88,0.88,190.6483459465394,7.931440096050783,-1895.301141388939,1.3365923010131286,1.8442808762206213,13.7308245575062,-2.74090155233777,264.50476112566224,2.5977863560878993,2.6738713843416724,-3.008599717088248,-2.901105765900931,101752.84142186385,186349.07839203448,9.856368444323524,1.1031882753316455,15.186040525664056,-3.1455190332832066,26.895265694024882,-2.7126767900662676,True
89,0.89,55.496902939022846,8.642332297355084,-1900.7434481191317,1.511530686731128,1.8054923370826559,14.059453103666296,-3.1065688457966107,256.04627836187063,2.5367536137972184,2.627887794863148,-2.75713308075619,-2.467829884344735,100041.66804320608,191179.53457928775,9.789335090503334,1.0646104831751542,15.0631079784017,-2.8168649215456134,26.68138630187071,-2.7639136567280094,True
90,0.9,290.78117983813047,8.153629544241545,-1853.6405030066608,1.3629033498392824,1.8379317150976981,14.029613977041699,-2.3798069893939346,257.6971820900379,2.517567910475554,2.619212589989491,-2.942265383521314,-2.8583110373568537,105464.76770563582,184716.83113102254,9.965937067194757,1.0720963832497852,15.48130175755495,-3.4037540744823844,26.68039926828998,-2.5616584706150567,True
91,0.91,263.98445363734055,10.354316155238154,-1870.7714158029964,1.3853080767406454,1.8300749569472625,13.543587531197428,-2.4791837252718345,255.5655399126066,2.592789938873019,2.6203590513846007,-3.322975293559293,-3.005075523439276,100494.6180108839,183131.59043534525,9.88329341056954,1.1071827096856912,15.918605441451385,-3.1233943223372926,27.63119285831499,-2.809892363956279,True
92,0.92,0.0,0.0,0.0,0.0,0.0,0.0,0.0,0.0,0.0,0.0,0.0,0.0,0.0,0.0,0.0,0.0,0.0,0.0,0.0,0.0,False
93,0.93,0.0,0.0,0.0,0.0,0.0,0.0,0.0,0.0,0.0,0.0,0.0,0.0,0.0,0.0,0.0,0.0,0.0,0.0,0.0,0.0,False
94,0.94,240.59812362553953,8.312509592375953,-1938.9837735636677,1.4791029999201513,1.746513638363395,14.075197618678445,-3.0661061223172363,254.2832192173222,2.4841614222649313,2.6127584306886056,-3.0845147779946083,-3.2297688898748604,102361.82620567009,184081.40427573433,9.899908625940144,1.0544828709222953,15.137650592979647,-2.9708338144429267,26.845548741872804,-2.8203333918255513,True
95,0.95,240.65447060624123,8.492517707949748,-1921.9457878461465,1.481294433129042,1.8068436032571829,13.436826759107552,-2.7898511985508976,261.8988728485382,2.6265289028886007,2.686643305673927,-3.135740777203195,-3.2968998208484237,102971.21587489873,178666.67205712385,10.128851883278468,1.0911592719293004,14.930643851949004,-3.238128209525896,26.452873573954893,-2.910593017639386,True
96,0.96,0.0,0.0,0.0,0.0,0.0,0.0,0.0,0.0,0.0,0.0,0.0,0.0,0.0,0.0,0.0,0.0,0.0,0.0,0.0,0.0,False
97,0.97,423.3930559557539,9.830326867542128,-1913.3415674992325,1.6950306469370369,1.8362037618622367,14.088651073283811,-3.4330132759562444,263.8988961834414,2.5131705617230806,2.623531041366131,-2.733876990699171,-2.4482755069392788,101804.45817525979,169310.23165174582,9.962488192332277,1.0369362224660044,15.067116411641821,-3.0074852751363825,26.904650066283917,-2.7571566373458944,True
98,0.98,326.42711773680065,9.515815455169108,-1925.610238670815,1.7458089013101674,1.8046889143575369,14.054187423474477,-2.889393064301648,267.3406859363405,2.539430749915128,2.632007665047634,-3.065066208436002,-2.5545723105371714,97889.45844485736,178773.36083998714,9.404468092391253,1.0120523413858151,15.91096208602796,-3.392418975700001,26.70635406258878,-2.6885828720293974,True
99,0.99,285.87384088675304,7.867034067325279,-1807.8958340842903,1.5047692187173094,1.8375296204088802,13.993458040719952,-2.701986754376283,262.4528988132757,2.5332997965824093,2.759115589057284,-3.3426584678022233,-3.31721758193621,104007.32028064207,178088.21521701023,9.713731183132802,0.967815420920851,16.051779511192173,-3.5215552528795313,27.43175705119644,-2.6617027789191026,True
100,1.0,195.39984595171583,7.667598773307311,-1915.9265802235159,1.7905747648826058,1.8120310659804264,14.162824762668395,-3.1594730763963623,253.89407260183967,2.5723296269582687,2.6169036538978707,-3.169740062366074,-2.9602274921943734,101453.4547948727,178224.19614810066,9.92301651434288,1.0761160918180281,16.44588405430059,-3.201830155301874,26.338143676934124,-2.5710445297138307,True
101,1.01,340.9761099346099,7.343540257190646,-1851.4470002429164,1.7284752047275342,1.7916040933722341,13.893123064377418,-2.9332457345160488,263.8652928095419,2.3700425001177634,2.706156754859964,-3.090828531172436,-3.137390819111702,104291.55206522506,176448.25135386165,9.605512269182826,0.9681442369085058,16.14455796184495,-3.6877562562313697,26.728516118981233,-2.8215032140127,True
102,1.02,355.12331019393355,8.973856730047856,-1882.8276926495814,2.1601557617438436,1.8159143508137048,14.609862158955714,-2.598674528099923,263.8361125452488,2.4830102749832714,2.714821981571506,-3.0950525684118757,-2.926786149533131,103958.96248012841,168223.78720123728,9.744306750861428,1.0262553630014033,15.998577885829544,-2.9236104983656332,27.565237158217904,-2.806411741896994,True
103,1.03,272.73765350412793,9.329578614029197,-1919.3324657282092,1.8394187908438158,1.796248067362541,14.813515819620147,-3.072067700457671,262.4296073023408,2.642252213051836,2.6372691113515656,-3.309717792220053,-3.062303920150586,101178.06007736795,168807.9496084165,9.451549744692462,1.0325938805388482,16.354935709965982,-3.2249719559044836,26.704496798449206,-2.8536011023273176,True
104,1.04,304.3016554251584,8.001272598792852,-1878.167737033157,1.9601278008534873,1.7984012986465228,14.6224826134253,-3.412088093492307,257.04775288255155,2.561341333375443,2.669670944147519,-3.223906587531401,-3.0091725066886568,100526.8809367489,168971.11461306113,9.670414939300834,1.0000102756611837,16.253998140908216,-2.9621723613029913,27.42263683935566,-2.823124395906361,True
105,1.05,308.3364359282873,8.186987899104139,-1911.0387510030494,2.0190327899125333,1.7523894675840983,14.685142924128858,-3.426375912995219,255.88058955370389,2.581500334498915,2.6649121887694682,-3.5464844658187604,-2.5325598827114884,105853.32458185045,179495.0921723348,9.830833552919922,1.0110153808439821,16.88766438792341,-2.982639644378687,26.947046765200703,-2.9414102565783264,True
106,1.06,114.09696334902077,7.8730819515383015,-1897.7832089284477,2.08606183144945,1.8069302201352888,14.658171645133386,-2.876782051065513,256.6111583980396,2.5252610867463874,2.596622143587503,-3.6629737947985257,-2.864984104026409,101785.56937535851,170841.38037608532,9.68547232213023,0.9716594227334202,16.44770847564344,-3.27828892322684,27.621675972046784,-2.778667969463905,True
107,1.07,399.14781383418966,9.840829270413689,-1789.9002491661279,2.081844433635179,1.7837083106571583,14.246887149360255,-3.334052979615987,257.33537099633486,2.5311228591531583,2.6801361027436488,-3.3486501536498627,-3.023354370884215,100655.2756230634,167242.93983240766,9.967242235883509,1.0146288575490119,16.35782366716123,-3.1474334082393125,28.08580283632427,-2.592746273886965,True
108,1.08,352.86632591979856,8.571701148742136,-1935.3197137070272,1.9154689633520374,1.7705226796289595,14.307127377628449,-2.814354332209512,253.79569202616358,2.5042088679921224,2.6163024692615457,-3.547846348781843,-3.117432225454371,104779.1664635683,170553.2350683642,9.985012189704573,0.946511286699338,15.72971604111332,-3.4179721657282736,28.327035107290722,-3.1067413951640517,True
109,1.09,283.48680002199126,9.459331776181337,-1883.06963187377,2.1369106354475624,1.7523902001693743,13.983013027274279,-3.273880133138319,252.2726001870663,2.6413104432054824,2.683600399907807,-4.118596824817675,-2.725853445579481,101846.51621225572,167415.78463069917,9.844983493092872,1.0031709682778283,15.705694323679934,-3.441348931246199,26.770473389684085,-2.788288523957131,True
110,1.1,199.22848884027246,9.308859149392786,-1805.1884847990814,2.1008203658515106,1.767904496823615,14.275474837568359,-3.541964119363074,254.62288407144868,2.6011860773853472,2.657517307874155,-2.919140231849746,-2.7400504444323475,100520.53131006742,162111.0382389419,10.034185537401063,0.9694047496079118,16.869597666851497,-2.9914334659342643,27.00569599818369,-2.935564791273639,True
111,1.11,199.8632696777836,10.55625879112913,-1884.4970291840752,2.2604968908173175,1.7193909282428723,14.31736719536537,-3.304097765618505,258.5914721080097,2.5944212362796,2.6508373175885422,-3.9835507161732124,-3.2962399103373383,101172.75231854976,171129.77177920693,9.596402016413471,0.993655943110661,16.401667128138048,-3.497264054584471,27.22406720281641,-2.964406356365301,True
112,1.12,428.8525141118722,9.349202493357165,-1886.0286356990946,2.056470718249265,1.7972308702938853,13.833303218588515,-3.5743271998154906,257.2409863297345,2.5203959524863264,2.7061902527780877,-3.594988654241981,-3.5646679575782514,100071.85530253516,156658.443702191,9.82616459077366,0.9150176828901647,16.667832969997892,-3.3343827110539523,26.987332196128715,-2.936611453756798,True
113,1.13,459.194486237267,9.29311378445118,-1913.5190840434655,2.27140629701428,1.6500645154258313,13.792088886338853,-3.5509964398629137,253.49844373119794,2.6231141316969517,2.6145802350309135,-3.311703359624096,-3.7210470955388706,100282.44713866033,171236.76799905425,9.902658107199153,0.8861536185568136,16.084320776862217,-3.7387525887518636,27.498918289681253,-2.7452273723434897,True
114,1.14,344.05534910040467,8.250159562549745,-1869.925216926314,2.426471937896285,1.6865559372496386,14.060571052248108,-3.340895660115925,253.25182055327647,2.5558267307226283,2.706340156620127,-3.625133936541994,-3.2759983064624727,104649.2858675547,167127.14883137296,10.24795236096512,0.9330700230648757,16.309011915158493,-3.8070852865074185,27.222919628207876,-2.6708188429195405,True
115,1.15,184.24177195792376,8.238460644627486,-1934.6028749952889,2.4681679080927177,1.81968776280038,14.222344960147423,-3.2671037991323963,253.85438526401595,2.581900370791061,2.673912291582711,-3.7212006685373704,-3.4560262515249156,101543.06210168992,165598.74377060114,9.96873723215803,0.9271543282988031,16.65233241020051,-3.596062445854498,27.135746911683547,-2.946826457358363,True
116,1.16,440.9837253857239,10.575626618823527,-1871.9043322116217,2.3951005923395905,1.7345398240824297,13.81599244381774,-3.6218736571298904,262.30718481272015,2.5362198243690406,2.5399740342166774,-3.431725962099589,-3.182540006288688,102169.81291480298,161472.36206586802,10.059203711674563,0.8806553974375972,16.854957710465115,-2.2825098804250175,27.495359075988915,-2.9113777396344265,True
117,1.17,367.7419701643892,10.20971437891781,-1946.6019722673898,2.5151732886978047,1.7325903027505116,14.317937869249636,-3.42349914192366,262.8640084909242,2.6179070844030687,2.6073087025238775,-4.221627714909449,-3.260458646901637,101664.01069370873,163563.45761903457,9.704766829219201,0.8967312491517578,16.609225272433214,-3.4963415456395914,27.969818128925336,-2.7992660647643373,True
118,1.18,381.79949564964363,10.956709533607674,-1942.9079703920902,2.3848594315920906,1.7041780914653952,14.468458468227231,-2.732841055413186,251.19364784454353,2.54097633049195,2.639178157979756,-3.4238758526307485,-3.4358589228021557,100625.19637853277,167136.3141694983,9.601905117485916,0.8982669192010003,17.07254185856733,-2.9903276582390084,26.823780274919944,-2.9108841519348614,True
119,1.19,312.5200869561809,9.916482995373935,-1876.9103970192994,2.5541465508425505,1.7734843204292725,13.886194302272727,-3.8897420941139065,262.28558768368157,2.489518015674833,2.683261832712621,-3.4480222152581397,-3.132366904342537,102562.30948346059,165595.38645334207,9.633364101797296,0.9211802165212567,16.452288617855977,-3.6658522246363967,28.15375894721289,-2.7673238151514434,True
120,1.2,325.24351656691374,8.896859397328999,-1895.802798166222,2.463822337325329,1.7046650821108926,14.337257887566043,-3.077230892013683,247.6492513421426,2.5061125276968688,2.6669449770287503,-3.5619603971803557,-3.4093667501434566,103176.07170409265,163914.53485171453,10.010744423612657,0.9611525659782991,15.817890579302848,-3.8391141538123654,27.477600917746617,-2.9512793412561837,True
121,1.21,298.2210938244627,11.42184369837092,-1890.2022704252372,2.70935195189762,1.7681681420336652,14.01334994869426,-3.5281976494183533,256.6480515963704,2.4751446797735053,2.6376417633850844,-3.684879675215487,-3.3806464178109907,103675.83208741667,172892.04760585274,9.491969955094591,0.9223683491859518,16.98371235309797,-3.7597892300837317,27.14373540749922,-3.0457543738858632,True
122,1.22,138.60831837081034,10.550660353860177,-1957.3853340278238,2.8216733730946686,1.791788955730019,14.31642305338898,-2.844433195479345,257.6901176021746,2.574563224397759,2.594094562370818,-3.4678103122923134,-3.4625128150199154,100298.8022386969,170761.6589462367,9.793691144078384,0.8863393183190865,17.0157189508345,-3.3424286614148864,27.864976475278535,-2.4955272180072905,True
123,1.23,446.1695190109807,9.13386849413224,-1920.1373144034246,2.815324403783141,1.7331998739592749,13.663195033624822,-3.19746272672054,259.17013676953576,2.5439748670117917,2.6969991218627296,-3.8307177834766772,-3.5721792295418435,100484.86135332761,165643.19541987815,9.471536874506464,0.8616628510385742,16.829019324838395,-3.7651534065768666,28.21836775577631,-3.007966896055559,True
124,1.24,415.5477321144392,9.273554015318815,-1866.1856693379107,2.764017738106728,1.70503617063888,14.045185687927233,-3.7126084105599175,259.86120714183323,2.4542720956826014,2.661832084047191,-3.6046753044818325,-2.8792017886365464,99587.33304734855,159215.0304209276,9.534946459706477,0.8102410996485174,17.703742378921056,-3.4472850939923436,27.54045440199985,-2.804148347820553,True
125,1.25,303.37474947872886,9.25597399964914,-1984.9650257336177,2.868119396368883,1.7331206019194876,14.154274837296187,-3.551531557542075,255.43079299988202,2.4608906550573706,2.582143577215073,-3.540993884272012,-3.210415380546005,103496.60092884224,154040.32323448634,10.093436719979396,0.8860601347608632,16.736781622520272,-3.499542812342095,28.61321225449124,-2.673127969135086,True
126,1.26,325.7953278551906,11.31410094094649,-1848.8776645274781,2.732388330595957,1.656584847376103,13.756576537279857,-3.3718234316638425,254.48929096395491,2.459359987451978,2.6967903713503127,-3.0564122463797796,-3.632998370121444,102041.050497396,156584.98929466712,9.664700207052121,0.8535595229006792,16.682818653412692,-3.6063722504799722,27.438278675311548,-3.0425760433037494,True
127,1.27,294.7628457773466,10.732198348158164,-1938.6591197368994,2.8487706791427896,1.7862376744058541,13.37397881476995,-3.3609782373287276,252.77956513240147,2.414169752265736,2.7120004082748475,-3.6361754077699553,-3.5912521160226243,99038.89060256536,155677.27336464074,9.640756800665187,0.8090077022357841,16.71594110845164,-3.893517518348669,27.462741829402557,-2.9287735167183397,True
128,1.28,277.6340366341598,10.69354531893584,-1868.6993786173985,3.0692556559100854,1.6951561649730333,14.34439833484672,-3.724019960632269,253.7605273983485,2.3929137797319333,2.6030748549335327,-3.69070451683928,-3.184367137557627,105016.42137052747,159037.6512422862,10.012092524527226,0.9210311604619855,16.659085514278516,-3.8180537926952987,28.152028776612234,-2.6563269951413107,True
129,1.29,350.46508933594953,9.901275820961326,-1900.3962352037636,2.9771683217223277,1.7025729456213747,13.859538598959626,-2.7749410013808395,255.76865514767303,2.38207942856514,2.6802721592209995,-3.732969912768064,-3.8422168734720317,104054.4580811592,157892.497566225,9.7381807981394,0.8736131526834725,16.656586386500127,-3.407269231457123,28.548813577350895,-3.0292300213780488,True
130,1.3,0.0,0.0,0.0,0.0,0.0,0.0,0.0,0.0,0.0,0.0,0.0,0.0,0.0,0.0,0.0,0.0,0.0,0.0,0.0,0.0,False
131,1.31,174.0362004880431,11.182286097484166,-1892.9890855423191,2.9439277657655576,1.7267778522013473,13.762147773177555,-3.35930049611214,258.0383080115332,2.2544672974497306,2.5683519572014197,-3.4168178399940716,-3.5349071113358552,104707.06793888533,161194.04546248823,10.164585211948335,0.8496714043463502,17.30544473772849,-4.177408928078517,27.579379673017424,-2.90818113107179,True
132,1.32,288.48246975052336,11.476438259849596,-1929.8360361939576,3.131111093298569,1.7066556540090387,13.463309856662635,-3.0196493395901336,267.3362315049289,2.3157408019227503,2.5993582433803355,-3.741483208776487,-3.745799396754463,103023.12616009626,159510.1500583989,9.938217828227442,0.8143699446261591,16.936029656508342,-3.678979762087335,28.465501225085927,-2.8849168361473887,True
133,1.33,297.48116494571593,10.289805020969943,-1916.8381172442039,2.9724216778619548,1.7405933640189308,13.650241101221535,-3.579422339558087,259.69615257707494,2.2771428844504045,2.539054285260946,-4.155742265928268,-3.504051021423022,99735.96814932468,163165.34550269027,9.582835505578714,0.8253335362806433,17.00780675352402,-4.195947292793651,28.170178227683575,-2.9880336339612588,True
134,1.34,363.0804895095579,11.281630624184725,-1870.0455562827228,3.2938776534532885,1.6276681259393284,13.95642125013013,-3.855962309594317,251.9477874066338,2.24457299615063,2.554746675835566,-4.382632276999359,-4.0641241849449425,99940.26696224575,148472.25901134923,9.713521343935207,0.7963538632061865,17.130367436928626,-3.736413680669278,28.28643782810915,-2.841759033431441,True
135,1.35,252.02574233148397,10.611367837537596,-1903.0380412722047,3.255086889113069,1.6540990280467613,13.941440846078224,-3.6653654770405866,265.8279822198917,2.265266452227961,2.5983155246576453,-3.7619379657582273,-3.2851214618629463,104714.75641333747,145656.4576787383,10.257595605399496,0.7710570520624681,17.460463909044478,-3.21725607113068,27.737460122443384,-3.0268091684263383,True
136,1.36,383.3656271776723,11.986143168407104,-1802.5340659659248,3.2652718554408864,1.7602155048743846,13.64686523475697,-3.875895089632504,255.78742835528638,2.2551779451467318,2.587716360737679,-3.6826422224834414,-3.238489220175773,98357.5356815829,163642.776966391,9.981333550334666,0.7474819431807727,16.88722862256266,-4.002045510698587,27.248504007172112,-3.179198304977014,True
137,1.37,363.06280581214247,11.792774649946672,-1914.4371417840682,3.3711479672913045,1.7074423376128536,13.980270089657015,-3.5935825894419517,259.3933480019184,2.190178738377704,2.6446302987325963,-3.9872395987536913,-3.4322628731441607,104476.8005994567,141826.534841463,9.986180264993626,0.792218976233856,16.990291024832697,-3.862130847936742,27.802320679161763,-2.9953999731119514,True
138,1.38,0.0,0.0,0.0,0.0,0.0,0.0,0.0,0.0,0.0,0.0,0.0,0.0,0.0,0.0,0.0,0.0,0.0,0.0,0.0,0.0,False
139,1.39,287.8819413521129,9.141833538090196,-1835.0832525656149,3.3273377503726356,1.704314051186638,13.940188423127553,-3.5610940204849633,263.74780209736343,2.2081630629675173,2.6379437663159404,-4.001824931386881,-3.969974455037965,106403.24463948653,152072.04352512286,9.899265029191662,0.7789203275096004,16.723220107170036,-3.7605264689846316,28.454998735170008,-3.0356375026052485,True
140,1.4,270.60328556383126,10.70025285565685,-1932.626223528674,3.3678897719507748,1.5925655256604825,14.04306859053299,-3.5062866364000076,253.43255925560823,2.2052211932149097,2.550248501350142,-4.55588540139206,-3.839014926983654,104317.18557046396,156278.99401076965,9.787114603721083,0.7268478507217414,17.336670102606,-3.880636686036271,28.045746507145832,-2.976352414061136,True
141,1.41,242.4603860410064,10.693661247455976,-1885.3597127265703,3.466878531687401,1.6283263022850416,13.73548140216195,-4.200137887604455,258.0644304892408,2.111115544141017,2.6558000155536647,-3.951758189816851,-3.422855631218957,101591.47969907113,157575.22013441272,9.463365726199914,0.7641187114199339,17.05310680173767,-3.238608299498968,28.909795890055463,-2.816403874826174,True
142,1.42,301.6441507047182,11.054034321846283,-1870.642413249781,3.650965553728058,1.6562270118610813,13.058480363545007,-3.5822500585790515,262.61827946145866,2.034922282595222,2.630441304326755,-3.728073213456825,-3.940525044566258,104272.2663316258,140774.0017313647,9.457398843514468,0.7904680901298653,16.989643478390423,-3.6119016624658804,27.252868271625797,-3.0206811503226416,True
143,1.43,232.13744286625348,12.531833889338673,-1881.6557670912778,3.4606967477414825,1.6919342130698853,13.063115254697893,-3.6515924629775824,254.6901713543648,2.0895437064046773,2.6321699058639383,-3.9286748635116573,-3.3612856726747697,103527.83602631856,147513.03203906468,9.970388481076498,0.7317464817226801,16.608832093774318,-4.386836512833246,28.743058393745454,-2.9973927991633307,True
144,1.44,553.8981615885677,13.209892767241914,-1895.0267297702746,3.7139764077253625,1.6216042468562228,13.571524128644029,-4.0845980577283205,259.14175218874925,2.0427160056378555,2.591953814129108,-4.006449074570223,-3.400015028239152,103390.66583886593,151042.16094181404,9.496652257129293,0.7317808654740917,17.025307761471822,-3.809657515104271,28.370067978619318,-3.214408496267473,True
145,1.45,452.30527493972414,10.38126422586661,-1816.0426762425177,3.6989885049215423,1.6350895998980217,13.345499054677465,-3.4874422705113766,264.6517036106706,2.1139525101451353,2.617071859602782,-4.065044183069221,-3.241835970588467,102201.95535672769,150698.15422124983,10.20376130206545,0.7747375314646392,17.501977310776418,-3.758720204281704,28.278073023698095,-2.96936195655329,True
146,1.46,0.0,0.0,0.0,0.0,0.0,0.0,0.0,0.0,0.0,0.0,0.0,0.0,0.0,0.0,0.0,0.0,0.0,0.0,0.0,0.0,False
147,1.47,389.5381196902001,11.22971526494668,-1890.8324275413158,3.779579635747483,1.650145160787682,13.623887931849232,-3.2451503057727926,260.3459188127527,1.93191495812619,2.5123884567180124,-3.5622805825261996,-3.513896074868818,99751.72906259229,154498.7526798695,9.576259169477451,0.672255407906749,17.131286965398672,-3.6657457914897145,28.198363911803625,-2.9926010879464613,True
148,1.48,368.7710884862772,12.848026695963409,-1864.5178200654627,3.5915562370880028,1.5877167661666176,13.217934982258825,-4.217806035181568,259.68479456461876,2.0712541488392784,2.476233312578675,-3.9928531703795906,-4.17953912721679,104236.85451799315,157966.04617166595,9.794389405770808,0.7211035034774362,17.339103750552514,-4.329887256902741,28.123589903509217,-2.9416035624075527,True
149,1.49,356.10591447307,11.194769455705206,-1856.11317791143,3.7078752029108575,1.5644555720084914,12.871187650422398,-3.6656021736056825,258.07357748021985,1.9723978370613044,2.524167136196983,-4.606676861305672,-4.196347551769051,104422.79366932018,138024.05117057238,9.5917955407909,0.6613078498424794,16.811465905996663,-4.270039873440919,27.913628253614462,-2.7731968478608913,True
150,1.5,351.53132049426785,12.461111626505438,-1834.1690311574484,3.818767907714157,1.678465945567049,13.371442392804507,-4.132349178236942,259.7525213005931,2.004801129209484,2.4883170995553376,-4.167311222673118,-3.9107807405056434,101757.31423283675,133354.54612272436,10.048149124568964,0.6707407191930657,17.527200290945096,-4.287067156147568,28.530367175738675,-2.9490415374359165,True
151,1.51,181.7499802838809,12.306282217098422,-1905.3542457467488,3.7386569325787087,1.6188097204742637,13.58013432004856,-3.834617150369282,255.28490169639952,1.9178851367283325,2.5534692424545242,-4.580733689303045,-4.106399849409237,101849.78717267491,134370.42467150118,9.775991048385276,0.7065529443604942,17.136418779659916,-4.672255159084499,28.463182202003928,-3.190483046127803,True
152,1.52,296.07871757850324,13.542883811553308,-1903.6858049279854,4.005782018917657,1.590144617864585,12.912876592404457,-3.894109973942339,257.5828069890561,1.820086832940193,2.4046949054686153,-4.010277044172467,-4.239748271896454,104744.42983753946,150095.13335449883,9.84977612721238,0.7517742741495432,17.075989344392895,-3.8993136402069593,26.868526485167223,-3.0769833221605807,True
153,1.53,465.6092172968355,12.743016630037314,-1853.4476945728145,3.967105663694083,1.667213632883359,13.153145766393305,-3.6542182845250815,256.311840732993,1.8025906883958993,2.474713471051878,-4.640085842395731,-3.811261578052468,100650.5370466757,148417.5522366911,9.879777764623901,0.6177914431954054,16.82918759774788,-3.6823016878586663,27.73169410282477,-3.280271561358345,True
154,1.54,478.70424593095527,12.347631583725903,-1875.53527049135,3.8630974494508936,1.6510474174945438,13.12023332062983,-3.985347568089032,249.9684631295898,2.010157178164028,2.387400315827658,-4.53207356064975,-4.298687623908679,98781.45997253757,149408.14293381755,10.102319316406424,0.6277975322214835,16.96420111587487,-4.706957152623828,28.159598161732443,-3.013136033020154,True
155,1.55,590.3005472648655,11.98261563810757,-1925.6031856793084,3.783628485618205,1.653770727414029,12.872192800444273,-3.9720119817090977,259.0979875391514,1.8394284576523259,2.508607674644703,-4.288123469467049,-3.29526146106202,106612.2481320153,149118.23631534024,9.799378673722904,0.6975723268211321,16.7819067906685,-4.180330257884109,27.966911140321486,-3.3235783271716963,True
156,1.56,463.7638057905598,12.02532703794155,-1902.6131261843311,3.9512893608210127,1.5940343386862934,12.647870657163098,-4.222524699205003,262.34225335693804,1.887530556612962,2.3589220376357725,-4.070257968762601,-4.207962420801156,102533.05544363396,146550.4379620013,9.736309189621908,0.6693579087741555,16.647417150763495,-3.8093710368113656,28.152807144987047,-3.0175342643940835,True
157,1.57,466.07505732922,12.307641659756598,-1891.6029319278302,4.062185094874395,1.5980246195649481,12.924267854570443,-4.186337944003276,272.0052337067184,1.7358989937949456,2.398836590069332,-4.0542439589396535,-3.8799639040560328,103045.88446600057,138075.3555901723,10.098700946723431,0.6510495136335152,16.29026469978573,-3.8328622344058996,28.1030051384191,-3.142379213053759,True
158,1.58,443.706276421139,12.429015834880259,-1922.3171217976196,4.067463697407454,1.574607541927656,12.685904479231487,-4.242646832830863,262.09739211546093,1.841529676065428,2.3266815631437914,-4.51344711758345,-3.658083455822054,101549.05171881423,149256.93141126554,10.00291301263896,0.6622277716549733,16.769142116822245,-4.827457196515696,28.468722490093143,-2.7876312395265868,True
159,1.59,379.4767954798643,13.805357249102117,-1834.1938362586607,4.197655697538527,1.625871540967043,12.86344247585593,-4.001477801527341,256.9840300014158,1.7423708689875188,2.3607664834860436,-4.68787045455006,-4.2935454057031235,102729.43562072954,141181.30225318237,9.928086053947286,0.6266630865695243,17.146093736513468,-3.9910672257081923,28.860683683843494,-3.1725970222497493,True
160,1.6,0.0,0.0,0.0,0.0,0.0,0.0,0.0,0.0,0.0,0.0,0.0,0.0,0.0,0.0,0.0,0.0,0.0,0.0,0.0,0.0,False
161,1.61,466.69738080955983,13.217596342907704,-1971.1710425538386,4.239135027496565,1.497037581590306,12.652921675270205,-4.263276837742149,264.29586629933715,1.7851412299594194,2.438066546541494,-4.599411709858422,-3.8750313611555134,99691.26873197602,138780.623293521,9.861391900626504,0.6322805035692262,16.989117418188414,-4.248621089385019,27.632502198234537,-3.084331448946225,True
162,1.62,250.0941132692153,12.767072099280734,-1965.5726877096658,4.11619198966387,1.5061709775611853,11.751314797080072,-3.998584308344929,261.0552104860648,1.7305863601352167,2.4062883547874763,-4.551730449202871,-3.819107710282153,104401.33085290932,130462.17159049875,9.868852218301353,0.5937909082027574,16.7224047309068,-4.070670621044847,28.379254791563397,-2.88523574639469,True
