Time,Position_N,Position_E,Position_D,Flight path angle,Heading angle,Total angle of attack,Bank angle,Ground speed,Lateral acceleration (command),Lateral acceleration (response),Bank angle (command),Bank angle (response),Drag force,Thrust force,Gravitational acceleration,Yaw,Pitch,Roll,Elevation,Azimuth,check
0.0,55.00501146385259,0.5369130635828585,-1868.460740635546,-0.10316240840580425,1.908445804072765,0.12633465121895857,0.15170153338746795,254.5879282212916,2.6386975878375045,-0.0016173915761592975,-2.29837247918924,-0.16320855539707413,96549.49990259246,283359.95931207255,9.748550226124504,1.9839454725107528,-0.42152238135854164,0.4437440435846189,11.687808066365648,-1.7994368715458313,True
0.01,-110.28312625960469,1.059735893357407,-1818.9050483126798,-0.029842784333814282,2.040805832435672,-0.13926743807821546,-0.2039873025161519,239.53751489651364,2.5417559876891946,0.10563027153363225,-3.190365216343061,-0.08121366897380568,95040.55541106366,290421.9422330907,10.218010677335482,1.9824876669042946,-0.09603182671485151,-0.4402027658394633,11.31182717496158,-2.0731897272749,True
0.02,0.0,0.0,0.0,0.0,0.0,0.0,0.0,0.0,0.0,0.0,0.0,0.0,0.0,0.0,0.0,0.0,0.0,0.0,0.0,0.0,False
0.03,94.62803117451301,0.6958270316275297,-1851.675472521614,-0.2742523841135186,1.8993854267545458,-0.06832860653182107,-0.27911335544036814,253.2036074497835,2.6129099350114577,0.04999846276663602,-3.029677007412472,-0.269806935720097,94733.13515683734,283113.6076693961,10.121948928646564,1.9922228597936695,-0.4287901101479561,0.3217788020745512,10.764014990014804,-2.108597031645142,True
0.04,85.98934515817746,1.7690411517263338,-1951.048143474742,-0.016098997053388894,2.051500727935032,0.4964951262528394,-0.1839740574761563,256.27953651436036,2.5149600166862855,-0.0450271810818937,-3.1483813210670917,0.07717473481678747,90329.76347135859,274790.6792221387,9.973912855385306,1.978866970988177,-0.9225930081809786,-0.1689853977611004,10.80596435320616,-1.8233421902780964,True
0.05,-8.450086242763817,1.0888678978762631,-1870.825517653205,0.1340639068075359,2.0416221469578035,-0.19683776576484668,-0.32333796736929143,253.05123953347325,2.582318519384843,-0.0018574420241638523,-3.299774535088979,-0.2545425231664732,96934.505218023,280461.12773738353,9.46249608425525,2.0330339126409984,-0.13428945123322986,-0.6127304287856244,12.014642320150537,-2.0570168124472357,True
0.06,0.0,0.0,0.0,0.0,0.0,0.0,0.0,0.0,0.0,0.0,0.0,0.0,0.0,0.0,0.0,0.0,0.0,0.0,0.0,0.0,False
0.07,107.6133074455691,2.1703992929859623,-1826.6724162787825,-0.09928353119924968,2.0651530457615994,0.0410413394188795,-0.5200547560925948,251.29093497620053,2.452702551224398,0.024303357948008503,-2.634246319639037,-0.4175931643275314,97709.03773253907,286726.37962825573,9.760878339426522,2.0285754283118127,0.153582397272667,-0.7728792486515849,10.653006551218562,-1.9829998552583217,True
0.08,330.1277941966228,0.28269312209249836,-1864.0259412110245,-0.21934180886331606,2.0311342881442007,0.6772372641167884,-0.8677493825015742,258.3768810139704,2.453165378836028,0.08163201564311447,-3.1295167842969076,-0.6897187933559976,95349.66513269594,271627.8510281224,10.002767826703467,1.9636570628772116,0.686379476846427,-1.1911167366577131,12.004601160496744,-2.1425204668098816,True
0.09,128.60377882609197,1.0401514639813394,-1887.483170851195,-0.09020837645060553,2.0067669922887443,0.742769552305476,-0.8292946257330959,251.96988923636547,2.556874087546137,0.14956745689815232,-3.1437538424923948,-1.1331524047365251,97265.31723014978,275089.7754264837,9.90176501282713,1.9985108109527954,0.8191348166214006,-0.8162831536292973,11.182176179567723,-2.108670528071178,True
0.1,-192.50443366202393,0.04660644797028257,-1883.6061704453082,-0.2605285077788512,1.9696264058757798,1.1190529669018754,-0.5990119777575538,249.5840594767627,2.519755138326253,0.07779559341929483,-3.209099972868588,-0.5647303936758187,97203.85850111199,272123.0424207252,10.019837467927097,1.9779502406692586,1.090654472125054,-0.7727724354715676,10.509945018762519,-2.0293015949351436,True
0.11,-68.15808305578483,-0.2683509665843191,-1889.264855880743,-0.18606720534318638,2.050296049414053,0.5656589713363147,-1.5451080083404132,257.27044268782436,2.516649459961318,0.2541593143584598,-2.5361570923518015,-1.474047947809059,99612.15717251485,281017.1414973704,9.93204408097257,1.9415981236737057,0.9245637991069238,-1.0751174266151835,10.56390953050213,-2.152824504749729,True
0.12,-27.19722529467801,2.935822075585116,-1881.1160053028354,-0.26464054346784377,2.0674864639027577,0.8305516453078037,-0.8912856820521591,233.64082148268574,2.570486919891592,0.30882061896155166,-2.916130791187241,-1.0515700691343919,93391.65194053459,261509.83186252398,9.500740525437655,1.999880219479382,0.9203558203953613,-1.002854410047435,11.623950415667327,-1.9956327894256,True
0.13,0.0,0.0,0.0,0.0,0.0,0.0,0.0,0.0,0.0,0.0,0.0,0.0,0.0,0.0,0.0,0.0,0.0,0.0,0.0,0.0,False
0.14,89.51985036451865,0.9105623344074167,-1875.0728218322724,-0.352586410895478,1.9967688151005316,1.682279112206983,-1.7221038263922732,250.29097121584178,2.5682092676133044,0.304590526514574,-2.5542676657277994,-1.1728346381172585,95737.12147144109,275660.4283509713,9.796153560751822,1.9678583768256972,1.6911837031600572,-1.4819274033266667,12.02197595016575,-2.3020718765321138,True
0.15,0.0,0.0,0.0,0.0,0.0,0.0,0.0,0.0,0.0,0.0,0.0,0.0,0.0,0.0,0.0,0.0,0.0,0.0,0.0,0.0,False
0.16,67.44131637268094,1.712487606541152,-1905.7781438977656,-0.5609619406314561,1.9227164550576,1.9571589237367282,-1.9249140977971917,258.10838498678436,2.4833490632977626,0.4779007537939196,-2.613884678484563,-1.7099595160434102,98729.8731132909,261412.51060922944,9.645564330024376,1.9511971302906512,1.6609563035121093,-1.7725065202679202,12.660814267322207,-2.403744044912059,True
0.17,134.21389334962174,0.04585885748664653,-1907.8273467278145,-0.47069833633791935,2.031385327782941,2.5639113316551256,-1.3494328655282823,255.96457268845674,2.566611090110524,0.43131553251811694,-2.701968104011799,-1.5623718807046552,101519.70041713222,260337.01764607735,9.730291896480233,2.0195501026008578,2.433988009317238,-1.5456209965978265,11.728386561813648,-2.452422287217562,True
0.18,15.990026546011752,0.8202571723608529,-1950.7398892199562,-0.26978199209576786,1.9932101219293332,2.7122554739028235,-1.5235177417251782,240.20753385028618,2.514488351466512,0.6196025381536603,-2.365314252520875,-1.750520617585772,95397.08697951923,253339.1353989536,9.813468566307282,1.8913729096539822,2.91048405807509,-1.8743257199648862,12.554875281564042,-2.3790782365893546,True
0.19,154.38514348731863,1.118886269860615,-1920.465413088357,-0.3649522426184432,2.0178414319006075,2.669474028215696,-2.022675203181492,254.6396003011894,2.5217005403907837,0.41598401435915644,-3.1827947542261987,-1.8686787832484215,97890.24624029941,269639.9521591743,9.666615233840439,1.8727447638888957,2.645791336747763,-2.2325522770137893,13.482145844190423,-2.2929994772687348,True
0.2,-46.17226545934765,2.7350116818618306,-1877.928973111657,-0.2192237380859594,1.9897776020073155,3.147817141208579,-2.398171978776236,256.8413861817274,2.502580509124265,0.5771353686057319,-3.143965067182161,-2.149198258348448,95933.61308685722,263213.4590927428,9.835927113089689,1.8570066832190475,2.3776723984438948,-2.2539904891505604,12.63529849553858,-2.434149604292585,True
0.21,-10.070262351620755,1.120834868409505,-1978.2291342029018,-0.365895156158318,1.9967209711392375,3.1871674839722837,-1.7181445914736526,248.25634660383037,2.541725958182919,0.5968345804356955,-2.7124731897958383,-1.9802948262855327,95255.29415398758,261308.94378446072,9.555382027669234,1.8817716526816215,3.1426501330940604,-2.0544753619944722,14.201660255160515,-2.3147209343334207,True
0.22,44.234867135283054,0.9822113381258659,-1914.1399647213075,-0.3733670336741548,2.002891210834748,3.318761280899694,-1.218222013468253,244.22867225386824,2.4956830321112524,0.5785143006702876,-2.6114004730656832,-2.6013023480019104,95814.39681183228,269714.44442212034,9.522190944569052,1.9404686422091004,3.9709208944342027,-2.0395206170483893,12.957518048096881,-2.375897328394852,True
0.23,137.38368084179078,1.654169505260005,-1941.8332866716041,-0.47514585610242127,1.989655352820998,4.138850088576542,-2.35516178629279,254.8489786713243,2.510373154184486,0.7119582668503455,-3.1472625658581013,-2.1429296481614393,93683.30492709728,246446.15682533337,9.994490215592974,1.817044273538062,2.9617831936204233,-2.1080837273225854,14.35113346830517,-2.4019283519640107,True
0.24,0.0,0.0,0.0,0.0,0.0,0.0,0.0,0.0,0.0,0.0,0.0,0.0,0.0,0.0,0.0,0.0,0.0,0.0,0.0,0.0,False
0.25,0.0,0.0,0.0,0.0,0.0,0.0,0.0,0.0,0.0,0.0,0.0,0.0,0.0,0.0,0.0,0.0,0.0,0.0,0.0,0.0,False
0.26,196.22676675085415,1.5422667970476194,-1864.9403170158262,-0.5222283436199535,1.9245302582147759,4.753955612490102,-2.6406582023588543,257.42961220503076,2.5451763898137543,0.9031099477161475,-2.5878744209669993,-2.4046211754087627,99269.8167580603,246367.32261359107,9.997409354900343,1.8096729186709002,4.126007500867888,-2.399326730286017,15.122852157978626,-2.4504536851244545,True
0.27,0.0,0.0,0.0,0.0,0.0,0.0,0.0,0.0,0.0,0.0,0.0,0.0,0.0,0.0,0.0,0.0,0.0,0.0,0.0,0.0,False
0.28,-139.42434241874173,3.141657353290044,-1870.6856959139318,-0.374538936289324,1.9815782933782258,4.631320903608691,-2.6756992709108918,261.40944394661256,2.5424118979879813,0.9602495230010355,-2.7933599413543795,-2.7878927184588296,97242.67363417377,244417.20840826575,10.039393319945887,1.7292015615299494,4.775402551545129,-2.4952406924776196,14.969191121689796,-2.5937078836201897,True
0.29,-79.65402710137207,1.0255382064295862,-1934.747384918128,-0.10198652259875224,2.0005955382011567,5.306955663237125,-2.940006764481557,256.7250609473691,2.5580509095131787,0.9582619829286497,-3.0351309451150894,-2.584783688453132,97214.04984709258,247552.89431086043,9.928122023357137,1.654239887625845,4.872831394088858,-2.3419970005135715,15.591099218022162,-2.4034445908346873,True
0.3,80.2621378762567,3.675646841829688,-1885.9470026547383,-0.43395314584058775,2.080873463185652,5.623955139828514,-2.5905282011872814,252.50144293812204,2.533094822688849,1.0599803509252224,-2.7926131794882108,-2.9283151227816755,98552.18367708189,246530.9322034974,9.862624338976262,1.6949028916683946,5.188138391108462,-3.3303690728436086,16.359651708942927,-2.3725565583093866,True
0.31,-66.04666366368936,1.402293056532745,-1987.6140298985063,-0.22233654802444014,2.0129943060306688,6.243606866706228,-2.692519653439739,249.4678891722394,2.588878399943822,1.0470019720222323,-2.5002550633894005,-2.1374084784779925,99013.50920942622,254947.09027417944,9.778476671244384,1.6594910506260792,5.47039005283709,-2.680864456065574,15.815813160403035,-2.759510119755069,True
0.32,7.920259808924072,3.7998052455381344,-1887.2453190954704,-0.22697557829227238,1.9685487727715947,6.187515300713539,-3.023657529032623,259.60939046617136,2.490255884284774,1.108910169582973,-2.767796923103829,-3.0614774853555256,98901.13829008501,246469.2240554927,9.715662468826014,1.734253370244723,5.874265767824397,-2.679759749350452,17.24842228116724,-2.601755969088619,True
0.33,37.75240378151036,3.9680051928918783,-1879.817905698024,-0.31700542117190716,2.0086582191639297,5.878464976118971,-2.306511448475647,263.0994216542741,2.628884023732653,1.1760918531479947,-2.31212744091647,-3.138541719682422,98463.45571543089,235168.7511929166,9.660451041797627,1.690503668208365,6.018604234083323,-2.6973233852683522,16.767871242193156,-2.624693306936528,True
0.34,-89.51209889760548,3.0552066252594248,-1871.5866960329902,-0.25480232417270793,1.9594758715071714,6.303580156323632,-2.4502673391653955,250.49166976970034,2.436306377127219,1.2184528384246889,-2.5592543422447664,-2.929935433675989,98974.40949671778,241543.34456201328,9.448204199024959,1.7308159703604284,5.413178965137899,-2.6428591635391903,16.093573638665042,-2.581041895250446,True
0.35,0.0,0.0,0.0,0.0,0.0,0.0,0.0,0.0,0.0,0.0,0.0,0.0,0.0,0.0,0.0,0.0,0.0,0.0,0.0,0.0,False
0.36,134.2039949558313,3.9226593304368578,-1919.5393216132973,-0.3349856644509014,1.9724965229714835,6.849451989993023,-2.92145857279967,262.72333424975096,2.5158949986383825,1.3728895778316474,-2.6696331656656382,-2.6234825856827477,99507.01478590303,235231.2152926149,9.743083351027186,1.6261293911376296,6.219176189156432,-2.654794296154635,18.039413289926166,-2.376181500491356,True
0.37,13.875746194814681,2.6201563846907625,-1927.211592148499,-0.321077347202879,1.9419162477210112,7.059370456724539,-3.316397874524945,251.82715230078168,2.59277297603489,1.4013005722762149,-3.239940050399409,-2.9946569404117556,100859.72473091628,237598.3908306731,10.04308307042997,1.6293437058508744,6.974888624572229,-2.958996594346777,19.285696515900245,-2.5522661973004066,True
0.38,120.16056541702639,2.7609752237588987,-1851.8273944421082,-0.3133356811239647,2.018217058384899,7.8424248877003695,-2.3681278363783016,239.68889013507305,2.5556059924038577,1.3380225836124005,-2.4679935862520375,-3.0515506960372067,96990.89480581309,237584.86673446925,9.644426153030185,1.501682475472851,8.112069254460755,-2.2474572220149684,18.019267739042135,-2.4068500625242955,True
0.39,0.0,0.0,0.0,0.0,0.0,0.0,0.0,0.0,0.0,0.0,0.0,0.0,0.0,0.0,0.0,0.0,0.0,0.0,0.0,0.0,False
0.4,172.49679083532504,3.946475825983646,-1887.227502604531,-0.2573122442995402,1.95083857451597,8.06299469519081,-2.8674997194013634,253.87635299134152,2.632495760781015,1.4435511669260548,-2.6607978777053387,-2.984797055086068,98201.29683089834,234956.02420940372,9.774995088177613,1.5430107748314377,8.148909102652867,-3.227498723634117,18.4767936368794,-2.877781379014727,True
0.41,280.67164383518974,3.9218324485749827,-1930.1718086002684,-0.1411663685298926,1.8477378808737563,8.197935669038555,-2.684569183857687,259.6159672372367,2.5231733108573065,1.4911823710690817,-2.400011285111015,-2.883550040503463,99293.63346706628,231051.09699768966,9.888942324102,1.6088482764667122,8.29644752962411,-2.660330604304553,17.939102145990518,-2.630407782560581,True
0.42,145.91080868263342,3.9301532535488146,-1943.2735800455184,-0.2423931317328282,1.9789458871417704,8.00446793955653,-3.0024898028138116,263.9986218243056,2.5198480261046363,1.578105905825889,-2.1264844094663093,-2.7821806196875207,98442.45491060209,237838.20092441,10.059482504547109,1.563573189079678,7.839466938212313,-2.7990621010251058,18.699205706031474,-2.653074406744489,True
0.43,158.5789910579116,2.7412208621234555,-1862.5498861572596,-0.2542860133237838,2.0231763021562164,8.389965860870106,-2.728702808407854,253.11722405149357,2.587319189475691,1.6459581973355764,-2.8564130032749233,-2.665533634765999,102721.03081224927,231026.39574918267,9.68703715128995,1.5578228016579503,8.722001088408508,-2.9072611933615105,18.49164124217376,-2.7575211781136844,True
0.44,365.7459441521398,2.685942329945272,-1909.6455630460446,-0.1241062239822879,1.939468629672288,8.932959244305994,-2.514561761382897,263.4646975101558,2.4925321992495095,1.6568413770545807,-2.771888545367119,-2.27269606581902,95213.53664840777,230745.81720155184,9.832775778615229,1.5321310018276588,8.58386667288042,-2.8381005947995965,20.20808650606447,-2.4834063588286392,True
0.45,131.51021431696108,3.0828330780332616,-1861.0297801011488,-0.09127980415340808,1.954285032757225,8.972702348134083,-2.7829317327951384,253.38322116145312,2.578047600952662,1.684774482905933,-2.6358313846183807,-3.496828839630675,99666.72865216147,213347.15474104678,9.477673014198173,1.5576593518209756,8.551686572745883,-2.4088975503695664,19.89807077967224,-2.6776481815475495,True
0.46,-54.09204636211217,3.896306328860157,-1855.9382063236742,-0.21979364818729652,1.9672903853095536,9.195144573773774,-2.559984011197481,258.96711121703925,2.5632899767729223,1.6673579018312867,-2.874562054953421,-3.046259254877212,99566.14495912139,221249.20898518673,9.94313409200667,1.514395436195542,9.05928249080118,-2.309454320156027,20.510792710525674,-2.533843097046077,True
0.47,79.91558980822015,4.141291991150516,-1975.9243588869833,-0.15858363936250053,1.9694384668305476,9.865519425957752,-2.501734400288441,251.42468362408133,2.524575887354435,1.8460377021281802,-2.912910991228055,-2.829662004764805,98339.42942729428,218071.66024552946,9.727584036749352,1.4787237058722504,9.75967109095419,-2.079203670125634,20.323820588183725,-2.706521880154303,True
0.48,-27.31600992058098,3.8425759183187793,-1868.3845867401105,0.0002454210936475437,2.029456150540321,9.57908347866305,-3.057410644561108,244.64531756004644,2.5079937512498325,1.6673919605227967,-3.1226718412974233,-3.3099033735265966,99939.63339071588,223753.93935547557,9.991133263210775,1.4468738815141715,9.600701819102218,-3.375626197860054,20.76331559540527,-2.498860668499531,True
0.49,168.37513949483565,4.328156770582609,-1897.8730738767508,-0.05177940187206544,1.9323896601038948,9.623131042032607,-2.8799245871464008,258.69277239801033,2.5416509868867188,1.8698563428426422,-2.6413639549467907,-2.4571238087045426,99958.83613817359,226110.55735388512,9.971576565366062,1.4316579791592587,9.776135948009049,-3.2491412953313263,21.31794296809041,-2.8536924759002167,True
0.5,0.0,0.0,0.0,0.0,0.0,0.0,0.0,0.0,0.0,0.0,0.0,0.0,0.0,0.0,0.0,0.0,0.0,0.0,0.0,0.0,False
0.51,409.79347818528584,3.998708635082869,-1908.2592606834628,-0.12467571826230403,1.9624461452597706,10.498276427406575,-3.2346202327677314,253.69282081590796,2.642577215214721,1.8083045565507163,-2.870542087557696,-2.855940114356402,103469.7970249768,219627.72181025665,10.003916248139642,1.3889189550413272,10.249036213660982,-2.680241753131322,20.654351783089304,-2.576639183826738,True
0.52,69.8584024856477,5.477112683267418,-1875.1093523310851,0.0016149558894646941,1.8995449227553998,10.81025688265593,-3.015946914825621,255.61195320862197,2.542332353339788,1.8749967458925325,-2.3600472114048032,-2.4409871113744814,100254.20644602619,225890.2958911127,9.84929449459437,1.4395257756080433,11.113893147899464,-2.864659608195902,20.83203743734514,-2.9738946298256117,True
0.53,0.0,0.0,0.0,0.0,0.0,0.0,0.0,0.0,0.0,0.0,0.0,0.0,0.0,0.0,0.0,0.0,0.0,0.0,0.0,0.0,False
0.54,90.49448778682438,4.442474868746365,-1966.2889057534135,-0.10605724333080445,1.916681022319001,10.794154648016457,-3.265716465080052,262.167796436845,2.5666494501851664,2.0711537567254936,-3.054969991412471,-2.394058328073455,98255.2984789955,212530.50878814317,9.776010411178449,1.3490700206543387,10.74942285651517,-3.0832376176567,23.254479838193983,-2.7342733860090074,True
0.55,59.432301597447605,5.163950427269397,-1860.5555421617134,-0.10186521766063156,1.9386670918047855,11.07371522370803,-2.348769671290472,251.04060604807336,2.621105331223291,1.9440775147683933,-3.1019906064458365,-2.465114081574931,96726.60530396765,208453.53817854944,9.887173472020677,1.2799838331383502,11.599962931191822,-2.904575254028329,21.671811007789803,-2.741588765793359,True
0.56,117.59227430075182,5.422511806080905,-1908.2729089378734,0.24926557606499994,1.944710022178772,11.011768727328306,-2.9231535860371918,267.2724238079804,2.549037293779642,1.948785848795414,-3.0918142016098322,-2.595456472051591,99371.10830834412,209862.55886836795,9.974288752278882,1.356032161938529,11.43047979464691,-3.403165871639206,22.145098752264452,-2.7212953503659785,True
0.57,295.3522539471594,4.8099042958970495,-1884.3352633555685,0.2783464337306638,1.9211111260462241,11.596554286540151,-3.38844065817368,251.64697221337352,2.6144737255132737,2.103054525446858,-3.1713972456409576,-2.455536630454459,100135.63321414831,202296.4804462581,9.561932291205359,1.2925860331996437,11.891165389809156,-3.0709910628880492,22.174774528293998,-2.664867404476368,True
0.58,118.84063669677286,4.660018565282495,-1970.1679368838459,0.1286574583869682,1.890745234085255,11.631176405358396,-2.336612717251515,258.07673373751874,2.6137024675749525,2.0604993698707017,-3.07315653414548,-2.6467615982194217,99594.57782982805,218934.19400953708,9.912581746217377,1.3482215592474294,11.68518356742578,-2.9186773112571607,21.653492995038327,-2.7284015784704825,True
0.59,287.364096974575,5.081166706366783,-1936.2769918323647,0.16898922147439469,1.9427903839397132,11.343300159503462,-2.491680059577757,263.7686988913764,2.4881554409533555,2.204155205747943,-2.847187637314592,-2.8310214703246177,99780.49153729738,209299.3713561326,9.640680148724153,1.3515759196949224,11.872340113905846,-3.4273636070576754,23.194244226495858,-2.709773799439632,True
0.6,319.51144935734993,5.80374167579387,-1848.6682405508952,0.13282867717104951,1.958012554686825,11.644528588790827,-2.8402248614507632,261.2425920812061,2.5174925408656446,2.1764272886258555,-3.0172870452226697,-3.3808631455158307,100614.8917532047,201241.19640550544,9.975209070564787,1.3664374175572145,11.820049858452354,-2.6646297128756267,23.17240690419227,-2.594182708742026,True
0.61,251.7747175393557,3.8393438252429193,-1893.2931934976525,0.28401211564448064,1.937335488450554,12.527776718708992,-2.704118497857475,255.65848181809662,2.591436349420457,2.198327653536918,-2.6886213539799915,-2.2598754886502137,104052.52050154668,204685.35241925865,9.752843394384033,1.3138385316658507,12.464182939462525,-3.4064211919343337,22.910972798066908,-2.6077850054930383,True
0.62,240.55827591431444,4.473429124186448,-1845.3138477847783,0.2467409661207828,1.9002691595078147,11.989652410790898,-3.0388183435686043,255.20402260713533,2.4983064719832595,2.2724874453156514,-2.3856858144806887,-2.865915558070133,97679.84688439984,208920.05699331456,10.006962530187947,1.3993492081760308,11.798709995447389,-3.148164530789984,24.134841094607648,-2.7556932681048854,True
0.63,47.466844711364445,4.3731740765950065,-1869.8667689699319,0.3210588687783942,1.897286285209297,12.357950614086224,-3.193428910705546,260.8838112862785,2.5582399397700977,2.264370892320382,-3.0387199392553588,-2.9987949343961358,97799.91037824385,199109.1035887483,9.705810621914539,1.2578911848558159,12.293374581231255,-2.6701309392701376,23.664638796467425,-2.601423979124245,True
0.64,119.53800786726529,5.231282408339363,-1902.8909795608506,0.19532818334195884,1.9410104239222092,12.143245362838847,-2.4946526265527904,263.1608405668704,2.4862663259251057,2.341954784598709,-2.9607364282504807,-2.410362365237218,100920.02521103476,211281.71804130744,9.905582751223095,1.336652535273583,12.917635931871656,-3.2208056951607147,23.11985554412283,-2.548848312448448,True
0.65,89.86620052516044,5.792325733853011,-1858.6679820560182,0.41173982422162636,1.9314955352407963,12.43946216563451,-2.740864571661478,244.3788043249344,2.4767473062010437,2.207116628703661,-2.5494368506175515,-2.9161660021853937,103386.04793703368,215083.23365872662,9.768613639316895,1.4007757827957281,13.379773776351657,-2.77784639161023,23.693242400537304,-2.6520013059286267,True
0.66,371.261596121274,4.900189283921229,-1870.3715239063602,0.2786456744463748,1.9074327995883475,12.767549191720823,-2.6369573695643296,260.77399588935856,2.6115323061733164,2.255697246484338,-2.1403181377902727,-3.1019203909180164,98083.91813209723,202762.55101165714,9.702421802247528,1.3015288973477452,12.403620217728724,-2.433883357540636,24.381523217008656,-2.5924484037195272,True
0.67,242.85177154806365,5.8205031642056095,-1909.0460249445343,0.4068511498013067,2.022207665822532,12.290487175255791,-2.654710797522341,257.7667899729625,2.603807858597761,2.2980211650520355,-2.607195853633714,-2.907496747469255,101858.82825279265,205716.00246357304,9.882265682305517,1.2326039264522708,13.251621462163863,-3.1740689674986173,23.45010710986502,-2.77322674177253,True
0.68,198.25688649689585,5.642128371946559,-1887.0048189926213,0.49703981651148027,1.9266317546593,12.741546485218048,-2.8881184443099057,262.18377732016614,2.4895591368436985,2.349137757087939,-2.7883011763729657,-2.775736450133443,98250.74552747444,204791.01535148462,9.998244743916622,1.2810501748056704,13.358216342164194,-3.1722691864321266,23.354125501547838,-2.6097558656712794,True
0.69,131.7642802410876,5.108787415180099,-1911.50604432697,0.5150464237968587,1.9326299138336562,12.590922185154193,-2.5762139210579784,266.9785345071591,2.64583724678398,2.328955973764442,-3.1204769161674752,-2.6165827966053943,105141.21397091312,199350.3551406838,9.941705472505248,1.2434506232137048,13.064617843154767,-2.9287360338924318,23.098952963299283,-2.5990091861534927,True
0.7,130.0879858585899,6.756639423972126,-1936.8350067890985,0.4718319906027311,1.8810905029540208,13.584353028916812,-2.7700432448766077,258.7107692014396,2.4573732025441046,2.4477364139630615,-3.1669525699794505,-2.6739134680935845,105254.99275949161,199963.29382816242,9.89750429154268,1.1891682810008675,13.089577507111212,-3.115144583075557,23.791303837265726,-2.623217946156552,True
0.71,266.79707407767535,7.8003454956990605,-1888.9185680211917,0.5154261192427679,1.9106815203537266,12.547206792624676,-3.466401397493732,257.0350238100278,2.6413982559482587,2.3669830758945256,-2.5023666808098497,-2.911313880002572,100948.89648662084,197074.77032017254,9.697663011299067,1.2234618700563207,13.442711250554934,-3.5016244308848434,23.902323585908434,-2.7462197786629945,True
0.72,50.877393973193335,7.162091315931282,-1859.3395058538947,0.6665072179579477,1.8876219240792553,13.061718152026323,-2.990249665766611,252.44263832039465,2.6077143919444565,2.4220368503199134,-2.7660189242277022,-3.4023526674543763,99089.202217147,203564.84026792904,9.716949494133429,1.1762344165764664,13.476775468719948,-3.127509425957324,25.22101279361818,-2.6439011669320465,True
0.73,206.53332810014797,6.787423011763469,-1962.301480049201,0.5996174445780788,1.7897419669102526,12.968485398728244,-2.534971383006974,255.69073041258986,2.540189658911463,2.407929893214967,-3.585135753101686,-3.1329265510239876,98519.12781901912,197254.94748540985,9.548489230221925,1.2980010442679588,14.196380836755852,-3.3980935069468585,23.44625158846196,-2.7862745782086873,True
0.74,0.0,0.0,0.0,0.0,0.0,0.0,0.0,0.0,0.0,0.0,0.0,0.0,0.0,0.0,0.0,0.0,0.0,0.0,0.0,0.0,False
0.75,190.86847695926215,7.500625455105991,-1935.1817186151682,0.8776191916794464,1.9036744081773178,13.762856710319237,-2.848292479671316,263.6159082852756,2.4332669225022148,2.557458045451271,-2.6041572126803176,-2.9129934031825195,101672.23563404931,208092.7428023817,9.730488279511679,1.2145339453153317,14.234681210657367,-2.625921150308276,24.9777314864192,-2.8464489196362703,True
0.76,240.84472421104647,8.047148322754403,-1897.93842546387,0.6225338395233915,1.840299371146197,13.53334470977481,-2.47222369353671,258.7497724537097,2.515454346712368,2.480635658872649,-3.190016556483107,-3.395419112060945,97228.26216434017,185763.8259529704,9.683807788070704,1.2159613666762574,13.890893503698278,-2.7782443699323975,25.365622279796522,-2.718012429912223,True
0.77,247.81245880751612,7.6105686348398836,-1889.0965318935548,0.8041012092302838,1.8509067722349162,13.717075214735239,-2.7586340965966256,258.06513371598476,2.5216415997544464,2.5082562132318205,-2.9429048267906763,-2.5583103121217743,102335.22906287815,186803.37628372418,9.649392342132849,1.219990148510389,14.211527665031257,-3.134404078042703,24.949605428305034,-2.7999618366961396,True
0.78,272.2354203304275,6.322300209546704,-1897.4833780442762,1.0295519318067512,1.8942877295053866,12.72739360670462,-3.24799565234229,260.7581501331212,2.4660034722597133,2.4940602623988632,-3.381730766456244,-2.533101195807327,99811.82973502362,190727.83668678108,9.744705333067548,1.1540225409976972,13.920561630710589,-2.445565960251474,25.788958139954552,-2.508732019167414,True
0.79,411.31125419337616,7.561813869757011,-1871.6272848375531,0.8183808994674459,1.8628442270237788,13.600849253584656,-2.806646160800664,270.3438913098811,2.5968165170699296,2.503458248710606,-3.0686791555970516,-2.877729413141849,100095.87867750353,187425.15656429378,9.671824777524114,1.1350711361223906,14.523139211905741,-2.692237783499657,24.736515069145888,-2.734545280293009,True
0.8,-72.22263605694127,6.13926039739476,-1856.9888764803231,0.8732993257055425,1.8273676793497915,13.830437602306471,-2.9437899424274945,266.54925473955836,2.5126694249354506,2.521886819435221,-3.307068377736953,-2.1865636648506657,102669.54749520926,186659.29661492136,9.919072448834514,1.2437695588654807,14.44332107074416,-3.2011079554156865,25.673436440236767,-2.7487710876123987,True
0.81,220.98453657735607,5.792407769840799,-1924.8461992557268,0.9384842896670935,1.8856228437742435,13.345304871914923,-2.6356752745878245,260.1742698499097,2.5335466765530197,2.6416615104237215,-2.8303709809988264,-3.3863940808471367,102214.25224721916,201829.78616817557,9.663523911808618,1.1780937453967695,14.204187388733457,-3.1090973057136,25.083436316534982,-2.9970161058667,True
0.82,301.032949035148,7.170254275388879,-1931.0510335904935,1.103028950940477,1.8786762105923065,13.657987154377764,-2.354789712608768,256.78551114210507,2.612257126186235,2.622302653947639,-2.368798836608134,-3.223704343300687,101465.55669609286,189247.43498139823,9.9041924173106,1.1706728714541774,14.544718619027018,-2.616659562842154,24.845151351585063,-2.6300268355407166,True
0.83,0.0,0.0,0.0,0.0,0.0,0.0,0.0,0.0,0.0,0.0,0.0,0.0,0.0,0.0,0.0,0.0,0.0,0.0,0.0,0.0,False
0.84,161.5802103435464,9.251138830190571,-1958.174152138717,1.1274603895296005,1.8504096985105773,14.10976481634122,-3.089032693841113,251.93240344808584,2.5601732923685385,2.62127141840567,-2.772933410250282,-2.6330094272702183,100198.1666916049,192031.60970605921,9.885794735087632,1.1922860528687453,14.848109757924714,-3.0390597484958293,26.94405715362498,-2.775056004005499,True
0.85,83.42653029777014,8.14346375242163,-1885.2616702734542,1.0176606142118454,1.7960246520387904,13.852219858452827,-3.4612749102969564,256.64809815058777,2.5872933716175512,2.5062574745763517,-3.0811993418013963,-3.127433737118159,101710.88730954,190829.36423808918,9.792020086206435,1.1142907767083747,14.27776949879146,-2.940918888834316,26.33044635711175,-2.8702470982174573,True
0.86,95.58343150251427,6.619201363498754,-1902.362549788167,1.2265373002262931,1.8750243959614459,13.491649765588056,-3.0632927429519925,255.30795243803044,2.539958403129104,2.6347906393903244,-2.510032044901039,-2.8020011001361644,97084.57520304884,182116.39633384423,10.04350432283457,1.099670612766123,14.64036329307408,-3.2215061624997134,26.736599776169285,-2.925917119244821,True
0.87,271.1970909308073,6.234721457833354,-1877.6019760024756,1.2077167878076154,1.9283769773215071,13.946850848792982,-3.230871240631492,268.77493671996143,2.5651492730755923,2.5746724750893737,-2.7958412048321177,-2.3194127971660534,100365.65599670642,186245.58730491318,9.711024722069297,1.116574832262165,14.406357357125978,-2.854093092106916,25.93578026684431,-2.805870089799536,True
0.88,241.68877176046718,7.6070726901086445,-1914.037405677139,1.2890690911176306,1.8711886139085971,13.484850526130538,-2.686467037667249,263.9813056605482,2.611785037425648,2.6267883781149166,-3.3104992172093985,-3.198002089503733,98231.26246244689,182529.95131493302,10.046261879599935,1.098937719864268,14.969295988839736,-3.1428889880127966,26.444970057280162,-2.6106636155203597,True
0.89,371.09735880440047,8.32338459424098,-1911.0474067453715,1.158682542905357,1.8691888297814347,13.91220753049426,-3.0337850891940623,254.4704268857801,2.6072323338376386,2.655439488810658,-3.0094650693114837,-3.2259730019888253,97206.04012809138,179802.7273732844,9.818970447298339,1.1221199095671845,16.0843831941606,-3.4457849302827013,26.090378437168116,-3.0338870929268675,True
0.9,253.21408266962666,8.075936394769133,-1860.481622769983,1.2498314368072365,1.804183961143919,13.279495075818383,-2.644987867109447,255.45777641143994,2.5944409890937803,2.45565031243701,-2.5471915708997415,-2.882416194559842,101592.52098851356,190551.1066771919,10.021878566604581,1.1424993722837797,15.409993387385787,-3.100139366569053,26.178687466805794,-2.9264133263432,True
0.91,210.22151708860815,8.12544814725723,-1951.9248570320042,1.332646140039813,1.772576664438464,13.965144070077663,-3.461787098268343,251.07650389622887,2.555376622174227,2.6245549332652227,-3.3566816158746824,-2.6693154890773263,101639.42919473814,176635.0568266262,9.492550194372509,1.1688096555370193,15.82875894112061,-3.1340828932579123,26.310750228879716,-2.7214178347709326,True
0.92,0.0,0.0,0.0,0.0,0.0,0.0,0.0,0.0,0.0,0.0,0.0,0.0,0.0,0.0,0.0,0.0,0.0,0.0,0.0,0.0,False
0.93,402.96114882047414,9.652534929627883,-1877.578024571336,1.4777532443967707,1.8954707425455155,13.986208332831923,-2.7051366032497923,267.00713568176855,2.616663646911742,2.668831638847974,-3.17608633477122,-2.993839716386468,102327.05827442226,178304.94310990197,9.69496837633772,1.0897668922856347,15.241079755323916,-3.2378438046461935,27.125463818154337,-2.8083779477978275,True
0.94,257.5786817914997,9.293083644334615,-1854.5485192697843,1.5236254188101044,1.8187579188915892,14.440930008857276,-2.906555772219521,262.0683380860714,2.513247440986018,2.582884434661743,-2.997518827651857,-3.1253467454967274,103108.50667081901,173171.97815830153,9.438259035129798,1.0907830172119817,15.6284191906584,-3.3819044930563256,25.981601981012084,-2.587582139812202,True
0.95,208.5925004456649,7.274164585235301,-1913.781034335709,1.5641316254054516,1.8499279075682602,14.182926178526948,-2.689590464245309,264.43218316487037,2.6699640890980167,2.6676234336444136,-3.544131577045753,-2.88990432662235,100935.1715971176,184478.88286608472,10.067169842419721,1.0897935191922148,15.666176333347725,-2.658303535454377,26.239531640184385,-2.9030549382843502,True
0.96,228.73793566441498,8.599027789973558,-1892.9408880595774,1.9361812603409936,1.8398151555166313,14.615383698849838,-3.119864352538147,246.5894275562602,2.5491939796044245,2.6333678205925017,-2.6737614926171527,-3.077647545970874,102730.5101039836,175317.85064420203,9.89882280550626,1.0423797080326203,15.928855148336382,-3.4005122043312173,26.144389316042837,-2.6634391213064323,True
0.97,299.4885908005496,8.179228150251578,-1882.8296873570112,1.715041778561712,1.7514569797194721,14.73667954216794,-3.3669082761429596,260.7547207553967,2.523574913281703,2.724480833281146,-2.6431439712066402,-2.4221827088599914,101825.1157763122,178806.92154888826,9.887701519706484,1.067312264740046,15.868122852959157,-3.1164714059218896,26.996215119594606,-2.7924407230562274,True
0.98,246.4915816496197,6.754907041398861,-1961.8340560311458,2.0050623217642882,1.849480070601337,14.515498348725737,-2.8992595399494894,258.5744387234726,2.5373398271630547,2.602708206149549,-3.0712231922679143,-2.8934233409848806,101284.16194199894,179804.90706543776,9.688930310835245,1.0660843864882905,15.527246395689048,-3.4682688147901017,26.131287004781793,-2.6385853004047135,True
0.99,288.66828359042563,8.880415901878035,-1878.8431931670252,1.572797149135522,1.78383744189062,14.415584087796,-2.9068359118012705,259.1763634925815,2.489584006413467,2.693870895607794,-3.6635460124959716,-2.937318734387183,102149.75080154762,177073.12770063904,9.637931278760922,1.0832392569740725,15.486000948249991,-2.995725745918892,27.388147699539484,-2.926544422729183,True
1.0,388.07431967937674,7.776933446678956,-1850.482367346112,1.9072037833510322,1.8137016502544248,14.632673668789598,-3.4416939843753305,266.63981120094576,2.4937914846239235,2.6677977544276517,-3.5223704028539258,-2.7572164177432907,96396.16609083007,180718.1654323078,9.74404404096157,0.9821547944712709,16.003635827807887,-3.442793743056235,26.418614757853966,-2.7490522480000714,True
1.01,227.9181500711793,8.305555821341978,-1891.4684681547465,2.077362699645836,1.6994997577137352,14.177388728240283,-3.2283809094188003,251.252331808257,2.5783695324894174,2.7208131315924957,-3.567787606692954,-3.051491680499388,103123.4748419608,167278.19657207286,9.40513871857834,1.0112120577067065,15.837905903341738,-3.6810011084310568,27.18455527744347,-2.8715371557558695,True
1.02,277.8241155641128,10.117967785210944,-1970.2794506188584,1.9393276932709127,1.824777633478857,14.3616688110346,-2.9020537943912665,252.82196214195676,2.5829765271528218,2.721167403624118,-3.5415407328210926,-3.133113197107521,100986.42321630093,166714.3281538837,10.078834168293383,1.0507594481705207,16.033215493587925,-3.4539336770479068,27.358143535546628,-2.816964789253555,True
1.03,370.7919373260299,8.716075674402536,-1890.5187413611823,1.9208566696013036,1.8580115567291464,13.625490835584642,-2.638538243969362,252.01497212609476,2.5530886949301532,2.645397419536067,-2.628190880689469,-2.944757068836329,100266.12910799516,178835.58825239242,9.883126297381057,0.9514107387940569,16.476645924334676,-3.268478411704064,27.98782541845632,-2.835747349563555,True
1.04,114.35123374287497,8.560965320639621,-1875.7010712241872,2.004349188246998,1.8516826484278168,14.235990501248555,-3.3449901884648328,253.92602867535197,2.5449109542217805,2.655803446567054,-3.2702626440169023,-3.042928188431327,102797.6384193665,174925.2629397975,9.992427501449646,0.990359174261801,16.512593870421288,-2.760807389666849,26.309969481073264,-2.8749240772711753,True
1.05,225.9191054248671,8.977123779730155,-1831.3861824675566,2.0317274187198064,1.8087210453729237,13.586669464798288,-3.1271485813652897,262.12301569645655,2.5940142772254977,2.679356574082408,-3.1807173504414843,-2.9841688062593428,101336.05745652385,171339.65861206898,10.120230389828139,1.0134544971959563,16.4124607376639,-3.5401672651424265,26.97719388464143,-2.8633999494685214,True
1.06,180.44429879677898,7.407740312857495,-1939.2325050889629,1.9337497702314004,1.8395228498964737,13.774479421120143,-2.9156356711112776,256.077245351031,2.6382719064036633,2.6541368797337945,-3.5424521094719035,-2.61496290671673,103526.42013633772,172703.66736425887,9.772411165448293,0.9975294461442108,16.801402530432117,-3.560794551132193,27.22994614907204,-2.7727609217727163,True
1.07,246.9310226052049,9.87787382142301,-1996.5503450271685,2.0196922808999513,1.7506524765319678,13.857407870744506,-3.2629082437699948,252.0848207945501,2.5563714934258206,2.6389213031903265,-3.4788539062164108,-3.316384158354938,102089.92069737344,172575.82883926132,10.036402711287028,1.0605514562026892,16.95482060001103,-2.881193100286086,27.827755127258254,-2.832371979511302,True
1.08,336.2736000686982,8.313723426503376,-1898.4480771235403,2.001144569481956,1.8390895274181933,13.915168045352813,-3.038547372722636,272.90831782657267,2.5570530842065304,2.566978988876688,-3.837697492541868,-3.1382450148294923,98152.43028466316,175630.02505989047,9.459382262732095,0.9999662934730236,16.375123056749963,-2.3588972668345987,27.420514226997057,-2.9382956537564513,True
1.09,111.26823432480589,9.806557181268772,-1940.0696807571433,2.2240913395490898,1.794949599324298,14.30285829010404,-3.1690702420224683,255.64773648015174,2.560870425749132,2.6667112277615765,-3.282806442280847,-2.867660159812127,102354.76565842019,161844.76566809267,10.08680260414287,0.9485926701866787,15.743700475989622,-3.3695263351853977,26.704833693437113,-2.8510454769571565,True
1.1,350.41854592215805,8.43976472735423,-1896.6573761838772,2.444817682854403,1.7785534528799356,14.455752133434684,-2.990502968779862,254.66253180040357,2.55070547932419,2.661853578404167,-2.6901843198110376,-3.1072191716759754,100969.33308452969,169599.3867795255,10.151808886614951,0.9581597744962815,16.441742934784415,-3.8429575172973167,28.27482459391347,-2.7973646996977264,True
1.11,203.98036833956508,10.083320480551937,-1869.0441293347133,2.2551604876996185,1.7623368721008468,14.203181790780619,-3.0506713783140005,262.1551559919295,2.539702777909295,2.6710307795010015,-3.4793590150827174,-3.049511112770224,103277.43139179614,159906.49180677917,9.883486911063443,0.9414775196510038,16.65204932810823,-4.139675467200396,28.66632324788031,-2.841717693617434,True
1.12,416.4687813620195,7.819525021274284,-1830.8458016796058,2.2167130788574108,1.8124809092652385,14.18207060018828,-2.976057287886581,259.9885420074948,2.6391564939920267,2.632512977501871,-2.919880885143406,-3.3210392291396316,103575.10694784026,162232.15511113996,9.716653977672632,1.012128222564546,15.802211207282447,-3.372887000682964,27.14283888774527,-2.7631798926183015,True
1.13,299.1474982990435,9.903402202092595,-1955.2119998573323,2.0633966300345947,1.7254983021744834,14.077368859527402,-3.3790095248551655,259.3680089296809,2.519603149980209,2.6666888987280655,-3.3203810304881105,-2.8186146534489867,102821.5901302213,176046.2617271466,9.987351034942893,0.9429223693520236,16.37003161444887,-3.49959898709514,27.56527062246489,-2.911417598963411,True
1.14,212.79154543656406,9.882469286370323,-1905.7844649808965,2.4614433623542595,1.7817555460699448,14.43064257909942,-3.156953074583516,256.2662921657765,2.486500107946722,2.6612808938067234,-3.1965472120989653,-3.0026812068073205,103279.8610454309,157954.2313790908,9.905392088364499,0.9430440991978547,16.308220199407693,-4.132718123809024,27.267571301503033,-2.9296583258185733,True
1.15,190.86803006362808,10.428166982913675,-1905.2786542310673,2.3156086838782146,1.8693368354869138,13.662437259162429,-3.1004370612890444,261.16762653614677,2.566542227867724,2.6177973310362868,-3.521663981475635,-2.5908598004342447,101456.75708107214,161002.2012182627,9.726520366697724,0.9704350728453562,16.3740722766082,-3.4750704517441453,28.10928981864997,-2.778618198784931,True
1.16,396.2049199800344,9.032511916596494,-1892.7554416242394,2.391985665792424,1.7335171607456543,13.787405225826022,-2.9061682560670237,247.19068166165908,2.5892745433069795,2.589312574775908,-3.1195220948253537,-2.630149940412945,100129.84261205836,161993.66577759793,9.525910484757988,0.9236807406057637,16.48636004866453,-3.458050867822636,28.39047602860637,-3.0087636055902443,True
1.17,389.2347542342212,9.822333601428554,-1912.7842629665681,2.275826619302265,1.7617627903580055,14.31595951386282,-3.249959215543209,261.2611057283066,2.5806672623003393,2.7008666116590563,-3.566955558102128,-3.2838495024178136,103434.44843383731,160535.31976144217,9.536783698578704,0.893425703353847,16.27621427197225,-3.2586959178810555,27.825531789489407,-2.808697120267776,True
1.18,323.5987261082223,9.92657561680528,-1897.389596328039,2.5763365794999307,1.7717884487310032,14.28873329957342,-3.8064527386845532,263.1550569882348,2.567212202232831,2.651987100236389,-3.7234975578056053,-2.5795380392218497,96720.67721030377,161324.85017382255,9.627266498349794,0.9082956310535155,16.691854778418623,-3.6552670374826475,28.245943371532384,-2.811623154337764,True
1.19,188.97821060866755,9.636985258998946,-1903.301609234877,2.605105575070648,1.7039773520624146,13.86158895583111,-3.200642032305782,260.01630427763644,2.5206227973635316,2.561491759562597,-3.767700893776544,-3.9436024206723537,101301.70463019039,166197.30685900277,10.054522906025193,0.8795629886205519,16.60367673832136,-2.9590843343038244,28.272043947609188,-2.86181717950668,True
1.2,310.0608187938014,12.037946830698845,-1837.1321191613122,2.5104960383675197,1.7355320477030178,13.886913223311527,-3.4088187970209245,260.99073830617033,2.4786437426180807,2.677359544039498,-3.587852353261818,-2.653381811938133,101579.09183605037,156265.93438933842,9.720910122466222,0.8395816328558804,16.970802030093783,-3.0384259054075775,28.600297526311103,-2.9060679691768714,True
1.21,192.09243221876795,10.776386343715316,-1901.0182889404546,2.80849588035722,1.784935631834612,13.498526616928084,-3.3432166138182517,257.786060631147,2.4778496309224267,2.6679718463920152,-3.615873492160798,-3.4389214388858718,103646.4299204386,163815.88733531404,9.883537544315535,0.8326217755458679,17.105218024495276,-3.7436360694705124,28.880202297563102,-2.8367601998757124,True
1.22,393.37591030754186,9.95960490377557,-1936.5382133989392,2.905018960929543,1.7381650207065713,14.289883896926193,-3.4127705875135192,256.78406240260676,2.3873750872955513,2.7392848548446334,-3.181104743119463,-3.4194422751362445,101025.1683732958,164373.58873909985,9.714489055454449,0.7858472200853298,15.940179380385807,-3.5439779018313797,28.270820863657338,-2.855426762634973,True
1.23,179.6239775095237,10.789575417139416,-1879.3590292289623,2.61156609626494,1.7713374861244244,14.030816405554132,-2.9010757316827167,250.79071773778642,2.4438456809913474,2.684702387483311,-3.3051821476715944,-2.7599382306736304,106744.71823977104,158157.1831158642,9.975441454954941,0.8869456439351318,16.701188608413077,-3.198068552668451,26.708983872395653,-2.870796335346849,True
1.24,329.5328785856124,9.94303089762959,-1965.6264886078618,2.6332724381548918,1.6985638442259936,13.492744208269611,-3.397621876835769,265.70108494944355,2.5126747509111182,2.636619597018545,-3.7586408500414112,-3.1303601515602826,102892.59113779412,160423.11870026213,10.15201118533722,0.9091793044329863,16.78612057250801,-3.1712478195558784,27.6248685288263,-2.720899775194293,True
1.25,232.9304021065273,11.245290589418829,-1892.6135487629517,2.6170143346308667,1.7359956654189999,13.998029373908677,-3.2150178882973126,260.96154498116175,2.3944529141217776,2.568282212977242,-2.9348278039873166,-3.574067565912257,104749.0901342929,150613.65793162468,9.681161380509035,0.7747277378290892,16.66348884119375,-3.7001360664800282,28.580768992552745,-2.936336158889824,True
1.26,166.64578083928015,10.30481590204647,-1913.4208537472614,2.825741736375489,1.7008576967143303,13.74312085706836,-3.262884926582482,257.65998444979056,2.4577598097169577,2.650807004722732,-3.1635801680984947,-3.5442299199277776,101319.66260841783,153540.5094943104,9.88878730868875,0.8920003589767351,17.515714733305554,-3.8494483080975326,27.598771258843758,-2.9976731203471427,True
1.27,327.8945365550846,9.671510900420767,-1897.8515407162838,2.797608703877398,1.6423914355392504,13.874688178705874,-3.357796976703136,254.18226143330153,2.3342351288590355,2.6851063206262804,-4.033446573901006,-2.9478111880504794,102085.89818155048,159615.8854769363,9.941547824962141,0.8072871956446073,16.607421058194067,-3.671247911944943,28.298937157258383,-2.9650020778189403,True
1.28,363.7987067760987,10.44647936698525,-1911.1174168472223,3.006638518868182,1.6869977946109256,13.75706055588933,-3.3918258071566996,263.9343322721855,2.330178572614578,2.645501115497836,-3.3032408763172563,-3.8652971125037126,101879.30228593329,154742.39597118343,9.69543031172973,0.7960691343496898,16.833712692198826,-3.513380654959968,27.60765618972986,-3.083107168323548,True
1.29,347.5211120397996,11.660504195012901,-1902.3142571848377,2.9298956454902343,1.660214703322055,13.848866489302946,-3.234616424009534,254.85227289085117,2.3993803709796366,2.7132342207335,-4.02916278549145,-3.322668920288101,99436.37294825097,162903.0271065947,9.872589595068579,0.8503453035267012,16.75771268112743,-4.220018069860657,28.4189727278935,-3.1567678488664708,True
1.3,247.64065284546228,10.464117350205976,-1880.4267122385374,3.1671145598644808,1.8022281099227053,13.589289069688485,-3.0825613421952034,253.9825423660774,2.2700320283046973,2.6722007284169136,-4.150274777010544,-3.968743590659024,106010.1542960791,156718.18873998075,9.950881220297783,0.8645856350499326,16.527262513886082,-3.7825333854155083,28.074499224484548,-3.016220044076459,True
1.31,386.53869691408465,9.80387971809047,-1818.943672089873,3.057526211144344,1.7137187177051727,14.131238356214496,-3.6973924056377983,263.5122887024546,2.307627793298451,2.704439354882791,-4.148345637535008,-3.710134863638766,96820.81895563356,161734.50249342737,9.970877133393925,0.8844926670771153,17.231358078648924,-3.674547483683955,27.319050060708975,-2.896224223844203,True
1.32,0.0,0.0,0.0,0.0,0.0,0.0,0.0,0.0,0.0,0.0,0.0,0.0,0.0,0.0,0.0,0.0,0.0,0.0,0.0,0.0,False
1.33,413.57029597222765,11.474144478965442,-1968.6907892869535,3.463336915994211,1.7183467144891338,14.056694790676886,-3.2766704898794616,261.47770716607516,2.1844997524109298,2.569168378180564,-4.72803267523705,-3.6949082396515456,102505.65671132268,144548.3206746727,9.877848933137194,0.8671864890096699,16.891202342502734,-3.7155160427778076,28.235910530067102,-2.9256002387017617,True
1.34,149.3178958056683,10.917270127031541,-1931.3987213254682,3.2246092562660404,1.7411272570965486,14.053592161292684,-3.28357161048656,259.938026128184,2.2658432296666122,2.6165715606579156,-4.14526976411912,-3.5750454504523708,100761.11339184262,163744.10159315323,10.042511428991189,0.8530092545458837,17.28670187122784,-3.6767296006035344,26.735456332381073,-3.107858311893283,True
1.35,386.86150355499376,10.518914372577557,-1855.6305494677397,3.15824673478625,1.6322701247041598,13.416268566462989,-3.4524775266793153,256.73189556751146,2.1930206311768465,2.6051443701837202,-3.5213822468476783,-3.5530681533058037,101288.09837111566,156907.08344248895,9.849501168656463,0.7904276936184805,17.05768079714735,-4.15535137715355,27.984737217383778,-2.8815877875509273,True
1.36,282.4290049320527,10.256019525509108,-1926.0420751904942,3.0874274743458807,1.626930298766746,13.695167087034175,-3.593447719175229,256.09342780027305,2.2291163186186047,2.479683921667005,-4.174360850137955,-3.324344129606765,101147.35039784959,153347.5080122682,9.786096979828299,0.8407132296668658,16.897578371842624,-3.3989377862043884,27.99134455038401,-2.9557770634446854,True
1.37,385.97515097098403,12.185621752885549,-1969.1834353349336,2.960282316669225,1.6636996930337287,13.560110354633004,-3.4175328363365898,257.5119515878934,2.168811340390902,2.700342315716571,-4.05270951747621,-3.4730706405200227,103678.34693466322,149908.91697438597,9.75211445422191,0.7703026688664996,16.8589759873264,-3.5836462381813274,28.332332595080157,-3.1143185470509884,True
1.38,0.0,0.0,0.0,0.0,0.0,0.0,0.0,0.0,0.0,0.0,0.0,0.0,0.0,0.0,0.0,0.0,0.0,0.0,0.0,0.0,False
1.39,285.1537857019761,12.083116787752893,-1847.774598583343,3.514613539316723,1.6455732907789928,14.226635141882024,-3.6760967991027265,257.5390740108528,2.233197744346119,2.5297151773221476,-4.403878456816337,-3.943560334071415,101719.91442078141,158622.00628784354,9.962272083257519,0.7651224152672681,16.94164538712532,-3.5380338070893576,27.241104576744032,-3.047275343707635,True
1.4,202.67874452323966,13.620035742645333,-1863.481402529237,3.378464962223235,1.693095161040838,13.5696131884317,-3.4247047937905815,262.22601309864956,2.1773813448166046,2.5458166205657125,-4.122818769785827,-3.990684476950846,102600.47681059538,152192.7217903212,9.825295891718683,0.6934455512815897,17.059613091841115,-4.139973533672827,28.67953799341979,-2.795406407280466,True
1.41,379.3244123254383,11.411634081391044,-1892.5834347598243,3.3427491589348373,1.6605795732685427,13.187129845413702,-3.861510034074746,257.9978917639453,2.0991853924253876,2.593816516972918,-4.175345305012453,-3.0892398602399265,100713.665713642,150715.2420135385,10.158384725964353,0.8040750340640005,17.44457758683681,-3.660504564830185,28.254998375970448,-2.8007980489476942,True
1.42,385.5147201486681,10.51723213541707,-1935.0497096643735,3.4406769467034675,1.6406432084919667,13.20281134980632,-4.042059962481558,252.93508615338337,2.0937438913413087,2.6149372573491325,-3.9495398522059646,-3.360317969676958,102207.51975769586,154074.59450770493,9.728438585874677,0.6907460144687301,17.005301849209438,-3.9082748374845515,28.47898596402697,-2.887351579488841,True
1.43,337.99510193186626,11.929579598496893,-1935.9343733628489,3.618363808417985,1.7267253791786943,13.506522041504965,-3.87117510167547,253.4532286226004,2.0426659006296646,2.5749251235257766,-3.982856993279934,-4.012519216326371,105201.43626841695,144724.57016084954,9.50231077930875,0.7220280252712221,17.303345713358123,-4.067521792870844,28.173392930995334,-3.036792723415271,True
1.44,97.80191769765929,12.171623716810208,-1883.4176730079691,3.6446546297514755,1.6420154366299562,13.39880250516726,-3.58874635368021,261.1542342206785,2.0270351075465864,2.558936404243134,-3.6298006652970214,-4.164215086258989,101250.75204245652,146976.09687002056,10.200492350227586,0.757640569272313,17.030595117740827,-3.7505100768997632,29.157509933318867,-2.9601017438347967,True
1.45,514.9920534231442,10.512415678478847,-1964.5426396301018,3.7014803330453785,1.6202609231582141,13.288341190561678,-3.915220235364054,254.95214178033467,2.1158766154526005,2.4926146901767248,-3.588909256537871,-3.6776069615313087,100743.40292163876,155016.1974583956,9.499561053013133,0.7546512005169377,17.437568852744036,-4.157476123527216,28.6259355579178,-3.170764975725092,True
1.46,335.91959787969864,12.484316343850454,-1870.9469593482559,3.7683144331244445,1.6647008047380654,13.913202469938726,-3.4719573539221713,261.80952607263055,1.9115455675338973,2.5997355260891384,-3.5574590741324568,-3.8610534928567684,99108.80325066163,146122.41080541452,9.691493528904505,0.7277739909043353,17.50436355236371,-3.891920855549919,28.70517290966725,-3.077521478241888,True
1.47,360.9865379103028,12.815791374168972,-1938.3208490511497,3.6373004408642613,1.6677809686698302,13.181867006355258,-4.10024255083553,263.85539681298206,2.053406255452008,2.4507095290917023,-4.263292952179773,-4.32538985032275,101926.43418700749,141371.47477197094,9.956312186974955,0.6794917061117455,17.084031849340683,-4.312741627058735,27.93575883097046,-3.1129184976310644,True
1.48,297.01102345076583,13.250374047870359,-1916.2868099281643,3.764506959878136,1.7151419014707552,13.16836063351143,-4.07333155050886,265.9440800514154,1.9059269506900187,2.5706055749487553,-4.356237971809309,-3.9244775695203424,104023.8167806538,152514.4870263641,9.48627115270678,0.7272127213059671,16.578469284278793,-4.51072360137863,28.3095522896184,-3.111582539091087,True
1.49,427.17200498589466,11.779918952470549,-1927.7404149774704,3.928796100390057,1.6089632531346896,12.845534898807616,-3.8360833840191764,258.96720785356683,1.9100267951091658,2.3800465849709975,-4.79534251916048,-3.620359992335873,104204.01624300593,163510.75713947281,9.655979250506938,0.7113453406416523,16.09094324908941,-4.1164892335259555,28.30718345868753,-2.959760089010686,True
1.5,362.9580213631748,13.912417688985581,-1893.937777142846,3.88127789737241,1.652075729602834,12.970188890639331,-4.0180736175463165,251.6083404171252,2.00990487232612,2.51532034523647,-3.696966062907069,-3.9641421739784426,103411.1761170482,154366.51011997228,9.63923836926579,0.6801636171415241,17.109669477299793,-4.131747669285542,28.765950344402018,-2.9000215466610806,True
1.51,424.98601939279115,13.155882474281388,-1964.8273272626693,3.900263237259064,1.6277085552127177,13.150069684581014,-3.3654050943970386,258.9400169867353,1.9247935323231784,2.56581982962295,-4.369470755495512,-3.286434135897906,102507.59722237824,147915.61950356344,9.601228990635933,0.6981723343193934,16.887052759931738,-3.8977394299747368,28.47812526084353,-3.14875720747348,True
1.52,381.03682711076635,11.952864842907534,-1909.541118475768,4.01194348819119,1.6428849841111492,12.92100413658724,-3.882193877877741,256.3944720633251,1.872203864302332,2.38155240888373,-4.262962377110617,-4.162537255161319,105831.2642528134,139782.91821187988,9.740755062573857,0.681174354417946,16.907571484477742,-4.343231726244795,28.601964051542442,-2.9250383800245774,True
1.53,489.63598321480197,11.741023997529107,-1944.5928714467918,3.8941811485587476,1.5832459997593524,12.838490709685303,-4.395165059050289,258.06502265548085,1.8980266104956622,2.5374794585533214,-4.518168707992175,-4.2559146318045205,103024.31858058182,149355.9508994104,9.740647008568413,0.6857816171316563,16.734847160809032,-4.554143300624772,28.283674335349115,-2.7567337900969,True
1.54,310.7285677497686,12.402053128506465,-1902.1264829646425,4.004876606842091,1.5843227796005326,13.436372398946911,-3.6149479746491484,259.46848667014444,1.8192829776485084,2.4458250280873775,-4.425417406507164,-3.80360217425834,104241.41815004,149755.4526451639,9.876399987104692,0.6694440123199299,16.480520497179697,-4.0421014389003735,28.55701733194861,-2.83386607766122,True
1.55,310.758547051632,11.996334488496082,-1912.4109617393851,3.9647978048446695,1.621295711511176,13.341925804312124,-3.859036006839992,260.868843577539,1.892534621349557,2.358449368738658,-3.961378271708592,-4.672597626457365,100792.11319847692,148327.8592858287,9.958576206542457,0.6568188447340734,16.612328105200888,-4.048465968797992,27.866094172668998,-3.046160530399113,True
1.56,352.5452665734079,11.7795693787489,-1888.2965427800048,3.8838672590987624,1.5927317679909654,12.734828387364725,-4.37900323601817,260.55286851472005,1.8515060590722234,2.4141880142201946,-4.673918512149883,-3.553609207952084,101376.38761371338,140174.80806231187,9.535595472697876,0.6243724035666662,16.318142479765623,-3.8661543158441667,28.30153754990628,-3.2281947138472513,True
1.57,0.0,0.0,0.0,0.0,0.0,0.0,0.0,0.0,0.0,0.0,0.0,0.0,0.0,0.0,0.0,0.0,0.0,0.0,0.0,0.0,False
1.58,483.0488961425056,12.14068344995929,-1917.0856455817657,4.255608695420331,1.6401965890178953,12.70167941845508,-3.9849408593672004,255.7837952270888,1.8079044752689288,2.3973926394189147,-4.204903906387907,-4.040885816626288,100912.08983159246,145266.4860212012,9.541460381983926,0.7137978875301563,17.105115738254078,-4.174603256779534,27.386547794518236,-3.043734046243455,True
1.59,220.39001137817777,13.807694422743289,-1844.7782747347514,4.183174212512892,1.6276331440165963,12.57483091526396,-4.04693860315061,253.72947964055615,1.8081026140013217,2.4580200117110667,-4.861880392909921,-3.560336479977155,101670.25937822745,147242.0154257185,10.14135420666876,0.5894000750780025,16.542944024522964,-4.342336321242907,27.564703549479447,-3.180981159904028,True
1.6,356.4435920489303,11.617369245159916,-1837.7110483944095,4.2749146710859875,1.5420301445372167,12.039620681512856,-4.344388382259685,257.9248188476967,1.6900789296313627,2.3574599839687265,-4.95734286433212,-4.315220111439294,103326.7218326638,139779.82708671465,9.607518071584762,0.7004137358826736,16.68490469612096,-4.338228425092499,28.29410966595449,-3.0241335307737747,True
1.61,274.85011034355193,14.331732167175216,-1849.098622855303,3.941915584804955,1.6073560118694918,11.898124972682828,-4.2955404842885025,259.5165413106916,1.7172109998901397,2.3311329573831867,-4.746478337835653,-4.61733124004337,105289.32208793156,139212.82884212298,9.579875500116147,0.6144733028023303,17.263472458952783,-4.5889643534061335,27.168844124969826,-3.006600614249345,True
1.62,520.604547227215,14.481257699486736,-1949.2926234624251,4.095491738559274,1.5318737451799538,12.439683264734136,-4.148031304773211,252.93553621855028,1.7681450622662633,2.2603457182253797,-4.245522850501619,-4.293743863665834,100620.03550776457,143489.1841849156,9.727997961459225,0.5934872058433246,16.17936781519566,-4.604697057717701,28.977224712990733,-2.9001198987750727,True
1.63,345.0597982359465,13.576750744638025,-1906.8739910622812,4.260160442864442,1.6301177059832233,13.154580432325947,-4.2226296224877675,257.92912137665274,1.7038724843358237,2.3415861137462786,-4.692474073860456,-3.8537385966221596,101214.6131487118,139437.54267932696,9.749066862415441,0.5882408484773748,17.306914803370255,-4.484966801099286,27.563071765622162,-3.0759743628280423,True
1.64,366.1908635597738,13.335968184906168,-1871.1943504303858,4.294272630674454,1.6017766264256437,12.523777669016079,-3.5712065742737704,257.7950995999412,1.812869774222721,2.3093018485726264,-4.946053705067884,-4.198056598452401,100121.37064171763,140604.69490543302,10.014857466064294,0.6687954895568778,16.428542323098505,-4.270372609947943,27.57374411787831,-3.2375254360103787,True
1.65,0.0,0.0,0.0,0.0,0.0,0.0,0.0,0.0,0.0,0.0,0.0,0.0,0.0,0.0,0.0,0.0,0.0,0.0,0.0,0.0,False
1.66,0.0,0.0,0.0,0.0,0.0,0.0,0.0,0.0,0.0,0.0,0.0,0.0,0.0,0.0,0.0,0.0,0.0,0.0,0.0,0.0,False
1.67,461.5289504889642,13.839003797290887,-1800.1221958723058,4.511087056003061,1.5864704713684183,12.56052573258987,-4.099547712482004,263.48689801803175,1.6762173700664955,2.363145718211957,-4.573302700557778,-4.322861213534975,100147.67057141139,146749.68958278926,10.236868553507026,0.5550573591921166,16.08470897121558,-4.847519858130091,27.046963948185866,-3.0935794132425656,True
1.68,0.0,0.0,0.0,0.0,0.0,0.0,0.0,0.0,0.0,0.0,0.0,0.0,0.0,0.0,0.0,0.0,0.0,0.0,0.0,0.0,False
